[
  {
    "type": "apartment",
    "name": "The Village at Irvine Spectrum",
    "description": "Voted the Best Community in Orange County, The Village at Irvine Spectrum Center features upscale, luxury amenities. View availabilities to learn more.",
    "address": "50 Prism",
    "zipcode": "92618-3147",
    "status": "WELCOME TO THE NEW VILLAGE",
    "image": "https://dynamicmedia.irvinecompany.com/is/image/content/dam/apartments/3-readytopublish/communities/orangecounty/irvine/thevillageatirvinespectrumcenter/delrey/photography/2034-04A_DelRey-Pool-Dusk_TheVillages_Phase2_Irvine-Apartments_EricFIggePhotos.tif?&crop=1092,0,3840,3840&wid=600&hei=600&fit=crop&iccEmbed=1&icc=AdobeRGB&resMode=sharp2&fmt=pjpeg&pscan=auto",
    "minRent": 2345,
    "maxRent": 4545,
    "coords": {
      "lat": 33.6536,
      "lng": -117.7508
    },
    "promo": "$99 Deposit Special!* "
  },
  {
    "type": "apartment",
    "name": "The Park at Irvine Spectrum",
    "description": "The Park at Irvine Spectrum features a 2.4-acre recreation space, high-end amenities, four spas, & three pools. View available floor plans for more information.",
    "address": "50 Prism",
    "zipcode": "92618-3403",
    "status": "SOCIAL LIVING IN THE HEART OF IRVINE",
    "image": "https://dynamicmedia.irvinecompany.com/is/image/content/dam/apartments/3-readytopublish/graphics/websitebanners/TheParkMobileWebtext.jpg?&crop=690,0,2828,2828&wid=600&hei=600&fit=crop&iccEmbed=1&icc=AdobeRGB&resMode=sharp2&fmt=pjpeg&pscan=auto",
    "minRent": 2460,
    "maxRent": 4355,
    "coords": {
      "lat": 33.65353,
      "lng": -117.75504
    },
    "promo": "$99 Security Deposit!"
  },
  {
    "type": "apartment",
    "name": "Villa Coronado",
    "description": "Villa Coronado apartment community in Irvine offers innovative amenities for your lifestyle. Find a floor plan and rent your dream home today.",
    "address": "100 Ambazar",
    "zipcode": "92614-8565",
    "status": "Updated Apartment Homes With Hardwood-Style Flooring, Stainless Steel Appliances, Glass Tile Back Splash, and Garage Available*",
    "image": "https://dynamicmedia.irvinecompany.com/is/image/content/dam/apartments/3-readytopublish/communities/orangecounty/irvine/villacoronado/photography/VILLA_CORONADO-EXT-AUG2017-018R.tif?&crop=582,0,3840,3840&wid=600&hei=600&fit=crop&iccEmbed=1&icc=AdobeRGB&resMode=sharp2&fmt=pjpeg&pscan=auto",
    "minRent": 2445,
    "maxRent": 3295,
    "coords": {
      "lat": 33.67635,
      "lng": -117.833885
    },
    "promo": ""
  },
  {
    "type": "apartment",
    "name": "Park West",
    "description": "Park West apartment community in Irvine offers innovative amenities for your lifestyle. Find a floor plan and rent your dream home today.",
    "address": "3883 Parkview Ln",
    "zipcode": "92612-1901",
    "status": "3 Bedrooms available now!",
    "image": "https://dynamicmedia.irvinecompany.com/is/image/content/dam/apartments/3-readytopublish/communities/orangecounty/irvine/parkwest/photography/PARKWEST-EXT-POOL-JUL2018.tif?&crop=490,0,3800,3800&wid=600&hei=600&fit=crop&iccEmbed=1&icc=AdobeRGB&resMode=sharp2&fmt=pjpeg&pscan=auto",
    "minRent": 2195,
    "maxRent": 3485,
    "coords": {
      "lat": 33.668667,
      "lng": -117.827385
    },
    "promo": ""
  },
  {
    "type": "apartment",
    "name": "Mirasol",
    "description": "Mirasol apartment community in Irvine offers innovative amenities for your lifestyle. Find a floor plan and rent your dream home today.",
    "address": "100 Mirasol",
    "zipcode": "92620-0335",
    "status": "COME HOME TO THE VILLAGE OF STONEGATE ",
    "image": "https://dynamicmedia.irvinecompany.com/is/image/content/dam/apartments/3-readytopublish/communities/orangecounty/irvine/mirasol/photography/Marisol-Pool-CMF-2911.jpg?&wid=600&hei=600&fit=crop&iccEmbed=1&icc=AdobeRGB&resMode=sharp2&fmt=pjpeg&pscan=auto",
    "minRent": 2540,
    "maxRent": 3295,
    "coords": {
      "lat": 33.70276,
      "lng": -117.74124
    },
    "promo": ""
  },
  {
    "type": "apartment",
    "name": "Woodbridge Pines",
    "description": "Woodbridge Pines apartment community in Irvine offers innovative amenities for your lifestyle. Find a floor plan and rent your dream home today.",
    "address": "115 Pinestone",
    "zipcode": "92604-4715",
    "status": "NATIONALLY ACCLAIMED IN CUSTOMER SERVICE",
    "image": "https://dynamicmedia.irvinecompany.com/is/image/content/dam/apartments/3-readytopublish/communities/orangecounty/irvine/woodbridgepines/photography/WOODBRIDGE_PINES-INT-MAY2019-DIN-LIVRM.tif?&crop=760,0,3800,3800&wid=600&hei=600&fit=crop&iccEmbed=1&icc=AdobeRGB&resMode=sharp2&fmt=pjpeg&pscan=auto",
    "minRent": 2445,
    "maxRent": 2845,
    "coords": {
      "lat": 33.683937,
      "lng": -117.807
    },
    "promo": ""
  },
  {
    "type": "apartment",
    "name": "San Leon Villa",
    "description": "San Leon Villa apartment community in Irvine offers innovative amenities for your lifestyle. Find a floor plan and rent your dream home today.",
    "address": "1 San Leon",
    "zipcode": "92606-8221",
    "status": "NATIONALLY ACCLAIMED IN CUSTOMER SERVICE",
    "image": "https://dynamicmedia.irvinecompany.com/is/image/content/dam/apartments/3-readytopublish/communities/orangecounty/irvine/sanleonvilla/photography/SAN_LEON-EXT-029R-MAY2017.tif?&crop=960,0,3840,3840&wid=600&hei=600&fit=crop&iccEmbed=1&icc=AdobeRGB&resMode=sharp2&fmt=pjpeg&pscan=auto",
    "minRent": 2515,
    "maxRent": 2965,
    "coords": {
      "lat": 33.685715,
      "lng": -117.82477
    },
    "promo": ""
  },
  {
    "type": "apartment",
    "name": "Portola Court",
    "description": "Portola Court apartment community in Irvine offers innovative amenities for your lifestyle. Find a floor plan and rent your dream home today.",
    "address": "100 Family Tree",
    "zipcode": "92618-1060",
    "status": "APARTMENTS & 3-BEDROOM TOWNHOMES ",
    "image": "https://dynamicmedia.irvinecompany.com/is/image/content/dam/apartments/3-readytopublish/communities/orangecounty/irvine/portolacourt/photography/ICAC-PORTOLA_COURT-EXTERIORS-JULY2016-007R1.tif?&crop=1289,0,5792,5792&wid=600&hei=600&fit=crop&iccEmbed=1&icc=AdobeRGB&resMode=sharp2&fmt=pjpeg&pscan=auto",
    "minRent": 2520,
    "maxRent": 4795,
    "coords": {
      "lat": 33.68645,
      "lng": -117.71668
    },
    "promo": ""
  },
  {
    "type": "apartment",
    "name": "Sonoma at Oak Creek",
    "description": "Sonoma apartment community in Irvine offers innovative amenities for your lifestyle. Find a floor plan and rent your dream home today.",
    "address": "100 Saint Vincent",
    "zipcode": "92618-3900",
    "status": "Rustic California Charm",
    "image": "https://dynamicmedia.irvinecompany.com/is/image/content/dam/apartments/3-readytopublish/communities/orangecounty/irvine/sonoma/photography/SONOMA-JULY2017-M3-LIV.tif?&crop=1903,0,5792,5792&wid=600&hei=600&fit=crop&iccEmbed=1&icc=AdobeRGB&resMode=sharp2&fmt=pjpeg&pscan=auto",
    "minRent": 3185,
    "maxRent": 4150,
    "coords": {
      "lat": 33.66655,
      "lng": -117.7894
    },
    "promo": ""
  },
  {
    "type": "apartment",
    "name": "Cypress Village",
    "description": "Cypress Village apartment community in Irvine offers innovative amenities for your lifestyle. Find a floor plan and rent your dream home today.",
    "address": "100 Piccolo",
    "zipcode": "92620",
    "status": "FIVE MINUTES AWAY FROM EVERYTHING",
    "image": "https://dynamicmedia.irvinecompany.com/is/image/content/dam/apartments/3-readytopublish/communities/orangecounty/irvine/cypressvillage/cadenza/photography/Cadenza-Model-CMF-6028.jpg?&wid=600&hei=600&fit=crop&iccEmbed=1&icc=AdobeRGB&resMode=sharp2&fmt=pjpeg&pscan=auto",
    "minRent": 2380,
    "maxRent": 3905,
    "coords": {
      "lat": 33.69138,
      "lng": -117.75593
    },
    "promo": ""
  },
  {
    "type": "apartment",
    "name": "Los Olivos at Irvine Spectrum",
    "description": "Los Olivos at Irvine Spectrum offers innovative amenities for your lifestyle. Find a floor plan and rent your dream home today.",
    "address": "310 Gitano",
    "zipcode": "92618",
    "status": "Voted \"Best in OC\" four years in a row by OC Register!",
    "image": "https://dynamicmedia.irvinecompany.com/is/image/content/dam/apartments/3-readytopublish/communities/orangecounty/irvine/losolivos/photography/LosOlivos-Antivo-CMF-0712.jpg?&crop=1289,0,4795,4795&wid=600&hei=600&fit=crop&iccEmbed=1&icc=AdobeRGB&resMode=sharp2&fmt=pjpeg&pscan=auto",
    "minRent": 2615,
    "maxRent": 4235,
    "coords": {
      "lat": 33.64436,
      "lng": -117.74832
    },
    "promo": ""
  },
  {
    "type": "apartment",
    "name": "Portola Place",
    "description": "Portola Place apartment community in Irvine offers innovative amenities for your lifestyle. Find a floor plan and rent your dream home today.",
    "address": "1000 Archway",
    "zipcode": "92618-8847",
    "status": "Three Bedrooms Available Now!",
    "image": "https://dynamicmedia.irvinecompany.com/is/image/content/dam/apartments/3-readytopublish/communities/orangecounty/irvine/portolaplace/photography/PortolaPlace-PoolR-CMF-1987.jpg?&crop=0,0,4800,4800&wid=600&hei=600&fit=crop&iccEmbed=1&icc=AdobeRGB&resMode=sharp2&fmt=pjpeg&pscan=auto",
    "minRent": 2665,
    "maxRent": 3780,
    "coords": {
      "lat": 33.6939,
      "lng": -117.71
    },
    "promo": ""
  },
  {
    "type": "apartment",
    "name": "Berkeley & Columbia Court",
    "description": "Berkeley & Columbia Court Apartment Homes in Irvine offers innovative amenities for your lifestyle. Find a floor plan and rent your dream home today.",
    "address": "307 Berkeley",
    "zipcode": "92612-4622",
    "status": "IT'S ALL U AT UTC IRVINE",
    "image": "https://dynamicmedia.irvinecompany.com/is/image/content/dam/apartments/3-readytopublish/communities/orangecounty/irvine/universitytowncenter/berkeleycourt/photography/BerkeleyCourt-CMF-7019.jpg?&crop=2400,0,4800,4800&wid=600&hei=600&fit=crop&iccEmbed=1&icc=AdobeRGB&resMode=sharp2&fmt=pjpeg&pscan=auto",
    "minRent": 2545,
    "maxRent": 3065,
    "coords": {
      "lat": 33.64861,
      "lng": -117.836174
    },
    "promo": ""
  },
  {
    "type": "apartment",
    "name": "Park Place",
    "description": "Located in the heart of Irvine, Park Place Apartments boasts a vibrant, luxury lifestyle in a cosmopolitan community. Explore availabilities now.",
    "address": "3395 Michelson Dr Ste 100",
    "zipcode": "92612-4439",
    "status": "Modern Luxury Apartment Homes",
    "image": "https://dynamicmedia.irvinecompany.com/is/image/content/dam/apartments/3-readytopublish/communities/orangecounty/irvine/parkplace/photography/BF0A9957.jpg?&crop=2240,0,4480,4480&wid=600&hei=600&fit=crop&iccEmbed=1&icc=AdobeRGB&resMode=sharp2&fmt=pjpeg&pscan=auto",
    "minRent": 2530,
    "maxRent": 3870,
    "coords": {
      "lat": 33.6704,
      "lng": -117.84127
    },
    "promo": ""
  },
  {
    "type": "apartment",
    "name": "San Marino Villa",
    "description": "San Marino Villa apartment community in Irvine offers innovative amenities for your lifestyle. Find a floor plan and rent your dream home today.",
    "address": "403 San Marino",
    "zipcode": "92614-0219",
    "status": "NATIONALLY ACCLAIMED IN CUSTOMER SERVICE",
    "image": "https://dynamicmedia.irvinecompany.com/is/image/content/dam/apartments/3-readytopublish/communities/orangecounty/irvine/sanmarinovilla/photography/SAN_MARINO-EXT-JAN2019-POOLDECK-A.tif?&crop=737,0,3800,3800&wid=600&hei=600&fit=crop&iccEmbed=1&icc=AdobeRGB&resMode=sharp2&fmt=pjpeg&pscan=auto",
    "minRent": 2715,
    "maxRent": 3650,
    "coords": {
      "lat": 33.680775,
      "lng": -117.814285
    },
    "promo": ""
  },
  {
    "type": "apartment",
    "name": "Parkwood",
    "description": "Parkwood apartment community in Irvine offers innovative amenities for your lifestyle. Find a floor plan and rent your dream home today.",
    "address": "17560 Rosa Drew Ln",
    "zipcode": "92612-2940",
    "status": "Relaxed Park-Style Living",
    "image": "https://dynamicmedia.irvinecompany.com/is/image/content/dam/apartments/3-readytopublish/communities/orangecounty/irvine/parkwood/photography/Parkwood_Apt_0134.tif?&crop=582,0,2720,2720&wid=600&hei=600&fit=crop&iccEmbed=1&icc=AdobeRGB&resMode=sharp2&fmt=pjpeg&pscan=auto",
    "minRent": 2300,
    "maxRent": 3485,
    "coords": {
      "lat": 33.65967,
      "lng": -117.80563
    },
    "promo": ""
  },
  {
    "type": "apartment",
    "name": "Deerfield",
    "description": "Deerfield Apartment Homes in Irvine offers innovative amenities for your lifestyle. Find a floor plan and rent your dream home today.",
    "address": "3 Bear Paw",
    "zipcode": "92604-3073",
    "status": "",
    "image": "https://dynamicmedia.irvinecompany.com/is/image/content/dam/apartments/3-readytopublish/communities/orangecounty/irvine/deerfield/photography/DEERFIELD-MODEL-NOV2019-13-LIV-DIN.tif?&crop=206,0,5792,5792&wid=600&hei=600&fit=crop&iccEmbed=1&icc=AdobeRGB&resMode=sharp2&fmt=pjpeg&pscan=auto",
    "minRent": 2245,
    "maxRent": 3560,
    "coords": {
      "lat": 33.69513,
      "lng": -117.79522
    },
    "promo": ""
  },
  {
    "type": "apartment",
    "name": "Rancho San Joaquin",
    "description": "Rancho San Joaquin apartment community in Irvine offers innovative amenities for your lifestyle. Find a floor plan and rent your dream home today.",
    "address": "20 Pergola",
    "zipcode": "92612-1703",
    "status": "\"Gold Design Award\" Winner",
    "image": "https://dynamicmedia.irvinecompany.com/is/image/content/dam/apartments/3-readytopublish/communities/orangecounty/irvine/ranchosanjoaquin/photography/RSJ-INT2-MAY2019-LVRM.tif?&crop=1742,0,3800,3800&wid=600&hei=600&fit=crop&iccEmbed=1&icc=AdobeRGB&resMode=sharp2&fmt=pjpeg&pscan=auto",
    "minRent": 2395,
    "maxRent": 3495,
    "coords": {
      "lat": 33.662296,
      "lng": -117.82943
    },
    "promo": ""
  },
  {
    "type": "apartment",
    "name": "Woodbury Lane",
    "description": "Woodbury Lane apartment community in Irvine offers innovative amenities for your lifestyle. Find a floor plan and rent your dream home today.",
    "address": "100 Simplicity",
    "zipcode": "92620-2847",
    "status": "Timeless Santa Barbara Charm Desirable Woodbury Address",
    "image": "https://dynamicmedia.irvinecompany.com/is/image/content/dam/apartments/3-readytopublish/communities/orangecounty/irvine/woodbury/woodburylane/photography/WoodburyLane-1Bedroom-Dining_Kitchen-CMF-4934.jpg?&crop=0,0,4800,4800&wid=600&hei=600&fit=crop&iccEmbed=1&icc=AdobeRGB&resMode=sharp2&fmt=pjpeg&pscan=auto",
    "minRent": 2620,
    "maxRent": 3895,
    "coords": {
      "lat": 33.70257,
      "lng": -117.74671
    },
    "promo": ""
  },
  {
    "type": "apartment",
    "name": "Cross Creek",
    "description": "Cross Creek apartment community in Irvine offers innovative amenities for your lifestyle. Find a floor plan and rent your dream home today.",
    "address": "22 Creek Rd Ste 1",
    "zipcode": "92604-4700",
    "status": "LOCATED CENTRAL TO AWARD-WINNING SCHOOLS",
    "image": "https://dynamicmedia.irvinecompany.com/is/image/content/dam/apartments/3-readytopublish/communities/orangecounty/irvine/crosscreek/photography/CROSSCREEK-MODEL-JULY2019-LIV-KIT-DIN.tif?&wid=600&hei=600&fit=crop&iccEmbed=1&icc=AdobeRGB&resMode=sharp2&fmt=pjpeg&pscan=auto",
    "minRent": 2895,
    "maxRent": 2895,
    "coords": {
      "lat": 33.674362,
      "lng": -117.79943
    },
    "promo": ""
  },
  {
    "type": "apartment",
    "name": "Turtle Rock Vista",
    "description": "Turtle Rock Vista apartment community in Irvine offers innovative amenities for your lifestyle. Find a floor plan and rent your dream home today.",
    "address": "3 Rockview",
    "zipcode": "92612-3249",
    "status": "A NATURE LOVER'S PARADISE",
    "image": "https://dynamicmedia.irvinecompany.com/is/image/content/dam/apartments/3-readytopublish/communities/orangecounty/irvine/turtlerockvista/photography/TRV-AUG2019-POOL-1-E.tif?&crop=0,0,5792,5792&wid=600&hei=600&fit=crop&iccEmbed=1&icc=AdobeRGB&resMode=sharp2&fmt=pjpeg&pscan=auto",
    "minRent": 2920,
    "maxRent": 3920,
    "coords": {
      "lat": 33.651443,
      "lng": -117.81864
    },
    "promo": ""
  },
  {
    "type": "apartment",
    "name": "Solana",
    "description": "Solana apartment community in Irvine offers innovative amenities for your lifestyle. Find a floor plan and rent your dream home today.",
    "address": "500 Estancia",
    "zipcode": "92602-1111",
    "status": "Rustic Early California Retreat, Stylish Northpark Setting",
    "image": "https://dynamicmedia.irvinecompany.com/is/image/content/dam/apartments/3-readytopublish/communities/orangecounty/irvine/solana/photography/SOLANA-EXT-JULY2017-058.tif?&wid=600&hei=600&fit=crop&iccEmbed=1&icc=AdobeRGB&resMode=sharp2&fmt=pjpeg&pscan=auto",
    "minRent": 2900,
    "maxRent": 4100,
    "coords": {
      "lat": 33.726097,
      "lng": -117.77232
    },
    "promo": ""
  },
  {
    "type": "apartment",
    "name": "Quail Hill",
    "description": "Quail Hill apartment community in Irvine offers innovative amenities for your lifestyle. Find a floor plan and rent your dream home today.",
    "address": "105 Quail Rdg",
    "zipcode": "92603-0693",
    "status": "LUXURY LIVING IN INSPIRED SURROUNDINGS",
    "image": "https://dynamicmedia.irvinecompany.com/is/image/content/dam/apartments/3-readytopublish/communities/orangecounty/irvine/quailhill/quailridge/photography/QUAILRIDGEEXT-0809-002.tif?&crop=569,0,2400,2400&wid=600&hei=600&fit=crop&iccEmbed=1&icc=AdobeRGB&resMode=sharp2&fmt=pjpeg&pscan=auto",
    "minRent": 2390,
    "maxRent": 3425,
    "coords": {
      "lat": 33.650497,
      "lng": -117.77042
    },
    "promo": ""
  },
  {
    "type": "apartment",
    "name": "Centerpointe at Irvine Spectrum",
    "description": "Centerpointe at Irvine Spectrum features open floor plans, saltwater pools, and premium amenities. Explore availabilities at the Centerpointe Apartments today.",
    "address": "7725 Gateway",
    "zipcode": "92618-1599",
    "status": "Live in the height of luxury! Schedule a Tour Today",
    "image": "https://dynamicmedia.irvinecompany.com/is/image/content/dam/apartments/3-readytopublish/communities/orangecounty/irvine/centerpointe/photography/Unit4245_14568_1_Flat.tif?&crop=2357,0,5792,5792&wid=600&hei=600&fit=crop&iccEmbed=1&icc=AdobeRGB&resMode=sharp2&fmt=pjpeg&pscan=auto",
    "minRent": 2715,
    "maxRent": 3870,
    "coords": {
      "lat": 33.6572,
      "lng": -117.7512
    },
    "promo": ""
  },
  {
    "type": "apartment",
    "name": "Villa Siena",
    "description": "Villa Siena apartment community in Irvine offers innovative amenities for your lifestyle. Find a floor plan and rent your dream home today.",
    "address": "25 Palatine",
    "zipcode": "92612-7605",
    "status": "RESORT-STYLE LIVING IN THE HEART OF IRVINE",
    "image": "https://dynamicmedia.irvinecompany.com/is/image/content/dam/apartments/3-readytopublish/communities/orangecounty/irvine/villasiena/photography/VillaSiena-Pool-CMF-7408.jpg?&crop=1608,0,6000,6000&wid=600&hei=600&fit=crop&iccEmbed=1&icc=AdobeRGB&resMode=sharp2&fmt=pjpeg&pscan=auto",
    "minRent": 2320,
    "maxRent": 4150,
    "coords": {
      "lat": 33.66879,
      "lng": -117.84764
    },
    "promo": ""
  },
  {
    "type": "apartment",
    "name": "Santa Maria",
    "description": "Santa Maria apartment community in Irvine offers innovative amenities for your lifestyle. Find a floor plan and rent your dream home today.",
    "address": "800 Santa Maria",
    "zipcode": "92606-7699",
    "status": "NEAR NATIONALLY HONORED BLUE RIBBON NEIGHBORHOOD SCHOOLS",
    "image": "https://dynamicmedia.irvinecompany.com/is/image/content/dam/apartments/3-readytopublish/communities/orangecounty/irvine/santamaria/photography/SantaMaria-Pool-CMF-9150.jpg?&crop=1006,0,4800,4800&wid=600&hei=600&fit=crop&iccEmbed=1&icc=AdobeRGB&resMode=sharp2&fmt=pjpeg&pscan=auto",
    "minRent": 3130,
    "maxRent": 3850,
    "coords": {
      "lat": 33.69857,
      "lng": -117.80243
    },
    "promo": ""
  },
  {
    "type": "apartment",
    "name": "Somerset",
    "description": "Somerset apartment community in Irvine offers innovative amenities for your lifestyle. Find a floor plan and rent your dream home today.",
    "address": "10 Marketview",
    "zipcode": "92602-1605",
    "status": "Stylish Italian Residence, Ideal West Irvine Setting",
    "image": "https://dynamicmedia.irvinecompany.com/is/image/content/dam/apartments/3-readytopublish/communities/orangecounty/irvine/somerset/photography/SOMERSET-INT-M107-LVRM-FEB2018.tif?&crop=994,0,3744,3744&wid=600&hei=600&fit=crop&iccEmbed=1&icc=AdobeRGB&resMode=sharp2&fmt=pjpeg&pscan=auto",
    "minRent": 2640,
    "maxRent": 3625,
    "coords": {
      "lat": 33.72982,
      "lng": -117.78151
    },
    "promo": ""
  },
  {
    "type": "apartment",
    "name": "San Mateo",
    "description": "San Mateo apartment community in Irvine offers innovative amenities for your lifestyle. Find a floor plan and rent your dream home today.",
    "address": "100 Cantata",
    "zipcode": "92606-8339",
    "status": "GEMM COMMUNITY OF THE YEAR AWARD WINNER",
    "image": "https://dynamicmedia.irvinecompany.com/is/image/content/dam/apartments/3-readytopublish/communities/orangecounty/irvine/sanmateo/photography/San Mateo-CMF-1891.jpg?&crop=2227,0,4800,4800&wid=600&hei=600&fit=crop&iccEmbed=1&icc=AdobeRGB&resMode=sharp2&fmt=pjpeg&pscan=auto",
    "minRent": 2315,
    "maxRent": 3425,
    "coords": {
      "lat": 33.684902,
      "lng": -117.81729
    },
    "promo": ""
  },
  {
    "type": "apartment",
    "name": "Shadow Oaks",
    "description": "Shadow Oaks apartment community in Irvine offers luxury-style amenities for your lifestyle. Find a floor plan and rent your dream home today.",
    "address": "100 Shadow Oaks",
    "zipcode": "92618-4073",
    "status": "Come see our new look!",
    "image": "https://dynamicmedia.irvinecompany.com/is/image/content/dam/apartments/3-readytopublish/communities/orangecounty/irvine/shadowoaks/photography/SHADOWOAKS-EXTERIORS-SEPT2017-138.tif?&crop=0,0,3840,3840&wid=600&hei=600&fit=crop&iccEmbed=1&icc=AdobeRGB&resMode=sharp2&fmt=pjpeg&pscan=auto",
    "minRent": 3495,
    "maxRent": 3685,
    "coords": {
      "lat": 33.671417,
      "lng": -117.78592
    },
    "promo": ""
  },
  {
    "type": "apartment",
    "name": "Harvard & Cornell Court",
    "description": "Harvard & Cornell Court Apartment Homes in Irvine offers innovative amenities for your lifestyle. Find a floor plan and rent your dream home today.",
    "address": "146 Berkeley",
    "zipcode": "92612-4618",
    "status": "IT'S ALL U AT UTC IRVINE",
    "image": "https://dynamicmedia.irvinecompany.com/is/image/content/dam/apartments/3-readytopublish/communities/orangecounty/irvine/universitytowncenter/harvardcourt/photography/IAC-UTC-HARVARD_COURT-JUNE2013LAMB-043.tif?&crop=623,0,2560,2560&wid=600&hei=600&fit=crop&iccEmbed=1&icc=AdobeRGB&resMode=sharp2&fmt=pjpeg&pscan=auto",
    "minRent": 2515,
    "maxRent": 3930,
    "coords": {
      "lat": 33.648323,
      "lng": -117.83527
    },
    "promo": ""
  },
  {
    "type": "apartment",
    "name": "Esperanza",
    "description": "Esperanza apartment community in Irvine offers innovative amenities for your lifestyle. Find a floor plan and rent your dream home today.",
    "address": "100 Esperanza",
    "zipcode": "92618-1775",
    "status": "nationally acclaimed in customer service",
    "image": "https://dynamicmedia.irvinecompany.com/is/image/content/dam/apartments/3-readytopublish/communities/orangecounty/irvine/esperanza/photography/IAC-ESPERANZA_APTS-0908-343.tif?&crop=654,0,2400,2400&wid=600&hei=600&fit=crop&iccEmbed=1&icc=AdobeRGB&resMode=sharp2&fmt=pjpeg&pscan=auto",
    "minRent": 2525,
    "maxRent": 3480,
    "coords": {
      "lat": 33.6951,
      "lng": -117.7385
    },
    "promo": ""
  },
  {
    "type": "apartment",
    "name": "Woodbury Place",
    "description": "Woodbury Place apartment community in Irvine offers innovative amenities for your lifestyle. Find a floor plan and rent your dream home today.",
    "address": "100 Cantor",
    "zipcode": "92620-3835",
    "status": "Spanish Colonial Rental Townhomes in Charming Woodbury",
    "image": "https://dynamicmedia.irvinecompany.com/is/image/content/dam/apartments/3-readytopublish/communities/orangecounty/irvine/woodbury/woodburyplace/photography/WOODBURYPLACE-EXT-APR2017-002.tif?&crop=434,0,3776,3776&wid=600&hei=600&fit=crop&iccEmbed=1&icc=AdobeRGB&resMode=sharp2&fmt=pjpeg&pscan=auto",
    "minRent": 3370,
    "maxRent": 4005,
    "coords": {
      "lat": 33.69509,
      "lng": -117.74391
    },
    "promo": ""
  },
  {
    "type": "apartment",
    "name": "Ambrose",
    "description": "Ambrose Apartment Homes  in Irvine offers innovative amenities for your lifestyle. Find a floor plan and rent your dream home today.",
    "address": "100 Amherst Aisle",
    "zipcode": "92612-4660",
    "status": "It's all U at UTC Irvine ",
    "image": "https://dynamicmedia.irvinecompany.com/is/image/content/dam/apartments/3-readytopublish/communities/orangecounty/irvine/universitytowncenter/ambrose/photography/Ambrose-Pool-CMF-7327.jpg?&crop=2400,0,4800,4800&wid=600&hei=600&fit=crop&iccEmbed=1&icc=AdobeRGB&resMode=sharp2&fmt=pjpeg&pscan=auto",
    "minRent": 2395,
    "maxRent": 3405,
    "coords": {
      "lat": 33.65287,
      "lng": -117.83553
    },
    "promo": ""
  },
  {
    "type": "apartment",
    "name": "Stanford Court",
    "description": "Stanford Court Apartment Homes in Irvine offers innovative amenities for your lifestyle. Find a floor plan and rent your dream home today.",
    "address": "146 Berkeley",
    "zipcode": "92612-4618",
    "status": "IT'S ALL U AT UTC IRVINE",
    "image": "https://dynamicmedia.irvinecompany.com/is/image/content/dam/apartments/3-readytopublish/communities/orangecounty/irvine/universitytowncenter/stanfordcourt/photography/Stanford-CMF-4339.jpg?&crop=336,0,4800,4800&wid=600&hei=600&fit=crop&iccEmbed=1&icc=AdobeRGB&resMode=sharp2&fmt=pjpeg&pscan=auto",
    "minRent": 2520,
    "maxRent": 3275,
    "coords": {
      "lat": 33.651463,
      "lng": -117.84127
    },
    "promo": ""
  },
  {
    "type": "apartment",
    "name": "Westview at Irvine Spectrum",
    "description": "Westview at Irvine Spectrum offers innovative amenities for your lifestyle. Find a floor plan and rent your dream home today.",
    "address": "21100 Spectrum",
    "zipcode": "92618-7314",
    "status": "",
    "image": "https://dynamicmedia.irvinecompany.com/is/image/content/dam/apartments/3-readytopublish/communities/orangecounty/irvine/westview/photography/WESTVIEW-POOL-SEPT2017-187RE.tif?&crop=1352,0,3840,3840&wid=600&hei=600&fit=crop&iccEmbed=1&icc=AdobeRGB&resMode=sharp2&fmt=pjpeg&pscan=auto",
    "minRent": 2650,
    "maxRent": 3695,
    "coords": {
      "lat": 33.654552,
      "lng": -117.75762
    },
    "promo": ""
  },
  {
    "type": "apartment",
    "name": "Santa Rosa",
    "description": "Santa Rosa apartment community in Irvine offers innovative amenities for your lifestyle. Find a floor plan and rent your dream home today.\r\n",
    "address": "500 Cardiff",
    "zipcode": "92606-0870",
    "status": "SMART RECREATIONAL LIFESTYLE, CONVENIENT WESTPARK LOCATION",
    "image": "https://dynamicmedia.irvinecompany.com/is/image/content/dam/apartments/3-readytopublish/communities/orangecounty/irvine/santarosa/photography/SantaRosa-CMF-1794.jpg?&crop=0,0,4800,4800&wid=600&hei=600&fit=crop&iccEmbed=1&icc=AdobeRGB&resMode=sharp2&fmt=pjpeg&pscan=auto",
    "minRent": 2675,
    "maxRent": 4395,
    "coords": {
      "lat": 33.687836,
      "lng": -117.80747
    },
    "promo": ""
  },
  {
    "type": "apartment",
    "name": "Cedar Creek",
    "description": "Cedar Creek apartment community in Irvine offers innovative amenities for your lifestyle. Find a floor plan and rent your dream home today.",
    "address": "5051 Alton Pkwy Ste 10",
    "zipcode": "92604-8615",
    "status": "Tranquil Woodland Setting Near Woodbridge Lakes",
    "image": "https://dynamicmedia.irvinecompany.com/is/image/content/dam/apartments/3-readytopublish/communities/orangecounty/irvine/cedarcreek/photography/CedarCreek-2Bedroom-CMF-1349.jpg?&crop=288,0,4800,4800&wid=600&hei=600&fit=crop&iccEmbed=1&icc=AdobeRGB&resMode=sharp2&fmt=pjpeg&pscan=auto",
    "minRent": 2395,
    "maxRent": 2805,
    "coords": {
      "lat": 33.672516,
      "lng": -117.7958
    },
    "promo": ""
  },
  {
    "type": "apartment",
    "name": "Avella",
    "description": "Avella apartment community in Irvine offers innovative amenities for your lifestyle. Find a floor plan and rent your dream home today.",
    "address": "6500 Roosevelt",
    "zipcode": "92618-1776",
    "status": "RELAXED LUXURY LIVING IN CYPRESS VILLAGE",
    "image": "https://dynamicmedia.irvinecompany.com/is/image/content/dam/apartments/3-readytopublish/communities/orangecounty/irvine/avella/photography/IAC-AVELLA-EXTERIOR-MARCH2015-002.tif?&crop=569,0,2400,2400&wid=600&hei=600&fit=crop&iccEmbed=1&icc=AdobeRGB&resMode=sharp2&fmt=pjpeg&pscan=auto",
    "minRent": 2420,
    "maxRent": 3925,
    "coords": {
      "lat": 33.6834,
      "lng": -117.7505
    },
    "promo": "$99 Deposit Special "
  },
  {
    "type": "apartment",
    "name": "San Marco",
    "description": "San Marco apartment community in Irvine offers innovative amenities for your lifestyle. Find a floor plan and rent your dream home today.",
    "address": "101 Veneto",
    "zipcode": "92614-8534",
    "status": "PRESTIGIOUS WESTPARK ADDRESS",
    "image": "https://dynamicmedia.irvinecompany.com/is/image/content/dam/apartments/3-readytopublish/communities/orangecounty/irvine/sanmarcovilla/photography/SanMarco-CMF-1877R.jpg?&crop=1817,0,4800,4800&wid=600&hei=600&fit=crop&iccEmbed=1&icc=AdobeRGB&resMode=sharp2&fmt=pjpeg&pscan=auto",
    "minRent": 2815,
    "maxRent": 2990,
    "coords": {
      "lat": 33.679264,
      "lng": -117.833046
    },
    "promo": ""
  },
  {
    "type": "apartment",
    "name": "Orchard Hills",
    "description": "Orchard Hills apartment community in Irvine offers innovative amenities for your lifestyle. Find a floor plan and rent your dream home today.",
    "address": "100 Whispering Trl",
    "zipcode": "92602-0800",
    "status": "Striking Tuscan Farmhouse Design in the Village of Orchard Hills",
    "image": "https://dynamicmedia.irvinecompany.com/is/image/content/dam/apartments/3-readytopublish/communities/orangecounty/irvine/orchardhills/photography/Orchard Hills-CMF-2302.jpg?&wid=600&hei=600&fit=crop&iccEmbed=1&icc=AdobeRGB&resMode=sharp2&fmt=pjpeg&pscan=auto",
    "minRent": 2575,
    "maxRent": 3895,
    "coords": {
      "lat": 33.7369,
      "lng": -117.7623
    },
    "promo": ""
  },
  {
    "type": "apartment",
    "name": "Promenade at Irvine Spectrum",
    "description": "The Promenade at Irvine Spectrum features open floor plans, saltwater pools, and premium amenities. Explore available homes at the Promenade Apartments today.",
    "address": "1100 Perlita",
    "zipcode": "92618-4816",
    "status": "Final Phase - Now Leasing",
    "image": "https://dynamicmedia.irvinecompany.com/is/image/content/dam/apartments/3-readytopublish/communities/orangecounty/irvine/promenade/photography/2130-06-afternoon-centered_Promenade-Pool-IrvineApartments_EricFiggePhotos.tif?&crop=1050,255,3579,3579&wid=600&hei=600&fit=crop&iccEmbed=1&icc=AdobeRGB&resMode=sharp2&fmt=pjpeg&pscan=auto",
    "minRent": 2525,
    "maxRent": 4615,
    "coords": {
      "lat": 33.640488,
      "lng": -117.74537
    },
    "promo": ""
  },
  {
    "type": "apartment",
    "name": "Woodbury Court",
    "description": "Woodbury Court apartment community in Irvine offers innovative amenities for your lifestyle. Find a floor plan and rent your dream home today.",
    "address": "1000 Payton",
    "zipcode": "92620-3451",
    "status": "Relaxed Santa Barbara Styling, Desirable Woodbury Location",
    "image": "https://dynamicmedia.irvinecompany.com/is/image/content/dam/apartments/3-readytopublish/communities/orangecounty/irvine/woodbury/woodburycourt/photography/WOODBURY_COURT-5611.TIF?&crop=163,0,2267,2267&wid=600&hei=600&fit=crop&iccEmbed=1&icc=AdobeRGB&resMode=sharp2&fmt=pjpeg&pscan=auto",
    "minRent": 2420,
    "maxRent": 3175,
    "coords": {
      "lat": 33.693275,
      "lng": -117.746445
    },
    "promo": ""
  },
  {
    "type": "apartment",
    "name": "Anacapa",
    "description": "Anacapa apartment community in Irvine offers innovative amenities for your lifestyle. Find a floor plan and rent your dream home today.",
    "address": "100 Anacapa",
    "zipcode": "92602-2301",
    "status": "Come See Our New Look!",
    "image": "https://dynamicmedia.irvinecompany.com/is/image/content/dam/apartments/3-readytopublish/communities/orangecounty/irvine/anacapa/photography/Anacapa-CMF-2595.jpg?&wid=600&hei=600&fit=crop&iccEmbed=1&icc=AdobeRGB&resMode=sharp2&fmt=pjpeg&pscan=auto",
    "minRent": 2775,
    "maxRent": 4235,
    "coords": {
      "lat": 33.726,
      "lng": -117.7855
    },
    "promo": ""
  },
  {
    "type": "apartment",
    "name": "Las Palmas",
    "description": "Las Palmas apartment community in Irvine offers innovative amenities for your lifestyle. Find a floor plan and rent your dream home today.",
    "address": "100 Las Palmas Dr",
    "zipcode": "92602-2311",
    "status": "Classic Mediterranean Charm At The Market Place ",
    "image": "https://dynamicmedia.irvinecompany.com/is/image/content/dam/apartments/3-readytopublish/communities/orangecounty/irvine/laspalmas/photography/LAS_PALMAS-EXT-POOLDECK-SEPT2018-3.tif?&crop=764,0,3800,3800&wid=600&hei=600&fit=crop&iccEmbed=1&icc=AdobeRGB&resMode=sharp2&fmt=pjpeg&pscan=auto",
    "minRent": 2555,
    "maxRent": 3120,
    "coords": {
      "lat": 33.72465,
      "lng": -117.787
    },
    "promo": ""
  },
  {
    "type": "apartment",
    "name": "Serrano",
    "description": "Serrano apartment community in Irvine offers innovative amenities for your lifestyle. Find a floor plan and rent your dream home today.",
    "address": "100 Wycliffe",
    "zipcode": "92602-1206",
    "status": "Relaxed Tuscan Style Near The Market Place ",
    "image": "https://dynamicmedia.irvinecompany.com/is/image/content/dam/apartments/3-readytopublish/communities/orangecounty/irvine/serrano/photography/SERRANO-JUNE2018-POOL-C.tif?&crop=954,0,3800,3800&wid=600&hei=600&fit=crop&iccEmbed=1&icc=AdobeRGB&resMode=sharp2&fmt=pjpeg&pscan=auto",
    "minRent": 2420,
    "maxRent": 3085,
    "coords": {
      "lat": 33.72041,
      "lng": -117.784904
    },
    "promo": ""
  },
  {
    "type": "apartment",
    "name": "San Carlo Villa",
    "description": "San Carlo Villa apartment community in Irvine offers innovative amenities for your lifestyle. Find a floor plan and rent your dream home today.",
    "address": "15 Murica Aisle",
    "zipcode": "92614-0252",
    "status": "CONDO STYLE APARTMENT HOMES",
    "image": "https://dynamicmedia.irvinecompany.com/is/image/content/dam/apartments/3-readytopublish/communities/orangecounty/irvine/sancarlovilla/photography/SanCarlo-Pool-CMF-5945.jpg?&crop=0,0,4800,4800&wid=600&hei=600&fit=crop&iccEmbed=1&icc=AdobeRGB&resMode=sharp2&fmt=pjpeg&pscan=auto",
    "minRent": 3105,
    "maxRent": 4065,
    "coords": {
      "lat": 33.682137,
      "lng": -117.824165
    },
    "promo": ""
  },
  {
    "type": "apartment",
    "name": "Palmeras",
    "description": "Palmeras apartment community in Irvine offers innovative amenities for your lifestyle. Find a floor plan and rent your dream home today.",
    "address": "100 Virtuoso",
    "zipcode": "92620-0335",
    "status": "COME HOME TO THE VILLAGE OF STONEGATE ",
    "image": "https://dynamicmedia.irvinecompany.com/is/image/content/dam/apartments/3-readytopublish/communities/orangecounty/irvine/palmeras/photography/PALMERASEXT-1208-072.tif?&crop=362,0,2400,2400&wid=600&hei=600&fit=crop&iccEmbed=1&icc=AdobeRGB&resMode=sharp2&fmt=pjpeg&pscan=auto",
    "minRent": 2495,
    "maxRent": 3375,
    "coords": {
      "lat": 33.6999,
      "lng": -117.7392
    },
    "promo": ""
  },
  {
    "type": "apartment",
    "name": "Woodbury Square",
    "description": "Woodbury Square apartment community in Irvine offers innovative amenities for your lifestyle. Find a floor plan and rent your dream home today.",
    "address": "100 Piedmont",
    "zipcode": "92620-2840",
    "status": "Classic Italian Style Convenient Woodbury Location",
    "image": "https://dynamicmedia.irvinecompany.com/is/image/content/dam/apartments/3-readytopublish/communities/orangecounty/irvine/woodbury/woodburysquare/photography/IAC-WOODBURY_SQUARE-EXT-LAMB-168--87R.tif?&crop=525,0,3200,3200&wid=600&hei=600&fit=crop&iccEmbed=1&icc=AdobeRGB&resMode=sharp2&fmt=pjpeg&pscan=auto",
    "minRent": 2595,
    "maxRent": 3195,
    "coords": {
      "lat": 33.700714,
      "lng": -117.74446
    },
    "promo": ""
  },
  {
    "type": "apartment",
    "name": "Santa Clara Apartment Homes",
    "description": "Santa Clara apartment community in Irvine offers innovative amenities for your lifestyle. Find a floor plan and rent your dream home today.",
    "address": "100 Santa Louisa",
    "zipcode": "92606-8852",
    "status": "MEDITERRANEAN STYLE APARTMENT HOMES",
    "image": "https://dynamicmedia.irvinecompany.com/is/image/content/dam/apartments/3-readytopublish/communities/orangecounty/irvine/santaclara/photography/IAC-SANTA_CLARA-FEB2012LAMB-LR-115-V2.jpg?&crop=0,0,1000,1000&wid=600&hei=600&fit=crop&iccEmbed=1&icc=AdobeRGB&resMode=sharp2&fmt=pjpeg&pscan=auto",
    "minRent": 2565,
    "maxRent": 3325,
    "coords": {
      "lat": 33.689095,
      "lng": -117.8164
    },
    "promo": ""
  },
  {
    "type": "apartment",
    "name": "Turtle Rock Canyon",
    "description": "Turtle Rock Canyon apartment community in Irvine offers innovative amenities for your lifestyle. Find a floor plan and rent your dream home today.",
    "address": "100 Stonecliffe Aisle",
    "zipcode": "92603-3751",
    "status": "NEAR NATIONALLY HONORED BLUE RIBBON NEIGHBORHOOD SCHOOLS",
    "image": "https://dynamicmedia.irvinecompany.com/is/image/content/dam/apartments/3-readytopublish/communities/orangecounty/irvine/turtlerockcanyon/photography/IAC-TROCKCYNAPTS-0809-006.tif?&crop=528,0,2400,2400&wid=600&hei=600&fit=crop&iccEmbed=1&icc=AdobeRGB&resMode=sharp2&fmt=pjpeg&pscan=auto",
    "minRent": 2825,
    "maxRent": 4035,
    "coords": {
      "lat": 33.64385,
      "lng": -117.80435
    },
    "promo": ""
  },
  {
    "type": "apartment",
    "name": "San Paulo",
    "description": "San Paulo apartment community in Irvine offers innovative amenities for your lifestyle. Find a floor plan and rent your dream home today.",
    "address": "100 Duranzo Aisle",
    "zipcode": "92606-8356",
    "status": "NATIONALLY ACCLAIMED IN CUSTOMER SERVICE",
    "image": "https://dynamicmedia.irvinecompany.com/is/image/content/dam/apartments/3-readytopublish/communities/orangecounty/irvine/sanpaulo/photography/SAN_PAULO-INT-MODEL-LIV_DIN-OCT2108.tif?&crop=222,0,3800,3800&wid=600&hei=600&fit=crop&iccEmbed=1&icc=AdobeRGB&resMode=sharp2&fmt=pjpeg&pscan=auto",
    "minRent": 2445,
    "maxRent": 4075,
    "coords": {
      "lat": 33.68486,
      "lng": -117.82386
    },
    "promo": ""
  },
  {
    "type": "apartment",
    "name": "Windwood Glen",
    "description": "Windwood Glen apartment community in Irvine offers innovative amenities for your lifestyle. Find a floor plan and rent your dream home today.",
    "address": "97 Hearthstone",
    "zipcode": "92606-7631",
    "status": "Award-Winning Schools",
    "image": "https://dynamicmedia.irvinecompany.com/is/image/content/dam/apartments/3-readytopublish/communities/orangecounty/irvine/windwoodglen/photography/WindwoodGlen-MasterBedroom-R-CMF-3686.jpg?&wid=600&hei=600&fit=crop&iccEmbed=1&icc=AdobeRGB&resMode=sharp2&fmt=pjpeg&pscan=auto",
    "minRent": 2420,
    "maxRent": 3440,
    "coords": {
      "lat": 33.6978,
      "lng": -117.7999
    },
    "promo": ""
  },
  {
    "type": "apartment",
    "name": "Woodbridge Willows",
    "description": "Woodbridge Willows apartment community in Irvine offers innovative amenities for your lifestyle. Find a floor plan and rent your dream home today.",
    "address": "344 Knollglen",
    "zipcode": "92614-7497",
    "status": "RELAXING LAKESIDE LIFESTYLE",
    "image": "https://dynamicmedia.irvinecompany.com/is/image/content/dam/apartments/3-readytopublish/communities/orangecounty/irvine/woodbridgewillows/photography/WOODBRIDGE_WILLOWS-INT_MODEL-KIT-JUNE2019-HHR.tif?&crop=495,0,5792,5792&wid=600&hei=600&fit=crop&iccEmbed=1&icc=AdobeRGB&resMode=sharp2&fmt=pjpeg&pscan=auto",
    "minRent": 2695,
    "maxRent": 3165,
    "coords": {
      "lat": 33.669598,
      "lng": -117.7916
    },
    "promo": ""
  },
  {
    "type": "apartment",
    "name": "Northwood",
    "description": "Northwood apartment community in Irvine offers innovative amenities for your lifestyle. Find a floor plan and rent your dream home today.",
    "address": "146 Roosevelt",
    "zipcode": "92620-3608",
    "status": "SPACIOUS RETREAT IN THE HEART OF IRVINE",
    "image": "https://dynamicmedia.irvinecompany.com/is/image/content/dam/apartments/3-readytopublish/communities/orangecounty/irvine/northwood/northwoodplace/photography/NWOOD_PL-INT-M1119-MAR2020-BEDRM.tif?&crop=0,0,5792,5792&wid=600&hei=600&fit=crop&iccEmbed=1&icc=AdobeRGB&resMode=sharp2&fmt=pjpeg&pscan=auto",
    "minRent": 2390,
    "maxRent": 3495,
    "coords": {
      "lat": 33.69539,
      "lng": -117.77
    },
    "promo": ""
  },
  {
    "type": "apartment",
    "name": "Windwood Knoll",
    "description": "Windwood Knoll apartment community in Irvine offers innovative amenities for your lifestyle. Find a floor plan and rent your dream home today.",
    "address": "2 Flagstone",
    "zipcode": "92606",
    "status": "BEAUTIFUL CAPE COD VILLAGE ",
    "image": "https://dynamicmedia.irvinecompany.com/is/image/content/dam/apartments/3-readytopublish/communities/orangecounty/irvine/windwoodknoll/photography/IACMKT-WINDWOODKNOLL-017R.tif?&crop=770,0,3840,3840&wid=600&hei=600&fit=crop&iccEmbed=1&icc=AdobeRGB&resMode=sharp2&fmt=pjpeg&pscan=auto",
    "minRent": 2480,
    "maxRent": 3225,
    "coords": {
      "lat": 33.6982,
      "lng": -117.7963
    },
    "promo": ""
  },
  {
    "type": "apartment",
    "name": "Brittany",
    "description": "Brittany apartment community in Irvine offers innovative amenities for your lifestyle. Find a floor plan and rent your dream home today.",
    "address": "100 Saint Vincent",
    "zipcode": "92618-3900",
    "status": "",
    "image": "https://dynamicmedia.irvinecompany.com/is/image/content/dam/apartments/3-readytopublish/communities/orangecounty/irvine/brittany/photography/IAC-BRITTANY-MAY2013LAMB-037-REV.tif?&crop=0,0,4096,4096&wid=600&hei=600&fit=crop&iccEmbed=1&icc=AdobeRGB&resMode=sharp2&fmt=pjpeg&pscan=auto",
    "minRent": 2515,
    "maxRent": 3710,
    "coords": {
      "lat": 33.6656,
      "lng": -117.7904
    },
    "promo": ""
  },
  {
    "type": "apartment",
    "name": "Estancia",
    "description": "Estancia apartment community in Irvine offers innovative amenities for your lifestyle. Find a floor plan and rent your dream home today.",
    "address": "500 Estancia",
    "zipcode": "92602-1111",
    "status": "Elegant Spanish Colonial Villa, Prestigious Northpark Area",
    "image": "https://dynamicmedia.irvinecompany.com/is/image/content/dam/apartments/3-readytopublish/communities/orangecounty/irvine/estancia/photography/IAC-ESTANCIA_APT_HOMES-MAY07-005.TIF?&wid=600&hei=600&fit=crop&iccEmbed=1&icc=AdobeRGB&resMode=sharp2&fmt=pjpeg&pscan=auto",
    "minRent": 2495,
    "maxRent": 3415,
    "coords": {
      "lat": 33.72557,
      "lng": -117.77493
    },
    "promo": ""
  },
  {
    "type": "apartment",
    "name": "San Remo Villa",
    "description": "The Irvine Company's San Remo Villa apartments are award winning apartments in Irvine, CA. View floor plans, amenities, and our virtual tour to learn more.",
    "address": "1011 San Remo",
    "zipcode": "92606-8218",
    "status": "",
    "image": "https://dynamicmedia.irvinecompany.com/is/image/content/dam/apartments/3-readytopublish/communities/orangecounty/irvine/sanremovilla/photography/San Remo-CMF-1957.jpg?&wid=600&hei=600&fit=crop&iccEmbed=1&icc=AdobeRGB&resMode=sharp2&fmt=pjpeg&pscan=auto",
    "minRent": 2645,
    "maxRent": 3165,
    "coords": {
      "lat": 33.685024,
      "lng": -117.81927
    },
    "promo": ""
  },
  {
    "type": "apartment",
    "name": "Dartmouth Court",
    "description": "Dartmouth Court Apartment Homes in Irvine offers innovative amenities for your lifestyle. Find a floor plan and rent your dream home today.",
    "address": "1100 Stanford",
    "zipcode": "92612-4630",
    "status": "IT'S ALL U AT UTC IRVINE",
    "image": "https://dynamicmedia.irvinecompany.com/is/image/content/dam/apartments/3-readytopublish/communities/orangecounty/irvine/universitytowncenter/dartmouthcourt/photography/Dartmouth-R-CMF-4504.jpg?&crop=938,0,4800,4800&wid=600&hei=600&fit=crop&iccEmbed=1&icc=AdobeRGB&resMode=sharp2&fmt=pjpeg&pscan=auto",
    "minRent": 2480,
    "maxRent": 3365,
    "coords": {
      "lat": 33.6523,
      "lng": -117.8386
    },
    "promo": ""
  },
  {
    "type": "apartment",
    "name": "Oak Glen ",
    "description": "Oak Glen apartment community in Irvine offers innovative amenities for your lifestyle. Find a floor plan and rent your dream home today.",
    "address": "100 Oak Gln",
    "zipcode": "92618-4701",
    "status": "IDEAL IRVINE LOCATION",
    "image": "https://dynamicmedia.irvinecompany.com/is/image/content/dam/apartments/3-readytopublish/communities/orangecounty/irvine/oakglen/photography/OakGlen-2Bedroom-CMF-3293.jpg?&crop=2542,134,4658,4658&wid=600&hei=600&fit=crop&iccEmbed=1&icc=AdobeRGB&resMode=sharp2&fmt=pjpeg&pscan=auto",
    "minRent": 2380,
    "maxRent": 3115,
    "coords": {
      "lat": 33.664024,
      "lng": -117.77589
    },
    "promo": ""
  },
  {
    "type": "apartment",
    "name": "Woodbridge Villas",
    "description": "Woodbridge Villas apartment community in Irvine offers innovative amenities for your lifestyle. Find a floor plan and rent your dream home today.",
    "address": "10 Thunder Run #30",
    "zipcode": "92614",
    "status": "Lakeside Cape Cod Village in Woodbridge",
    "image": "https://dynamicmedia.irvinecompany.com/is/image/content/dam/apartments/3-readytopublish/communities/orangecounty/irvine/woodbridgevillas/photography/IAC-WOODBRIDGEVILLAS-002-R.tif?&crop=522,0,1920,1920&wid=600&hei=600&fit=crop&iccEmbed=1&icc=AdobeRGB&resMode=sharp2&fmt=pjpeg&pscan=auto",
    "minRent": 2415,
    "maxRent": 2785,
    "coords": {
      "lat": 33.6674,
      "lng": -117.80853
    },
    "promo": ""
  },
  {
    "type": "retail",
    "name": "Alton Marketplace | Irvine Spectrum",
    "image": "https://images.ctfassets.net/l16b5usqno44/umb-media-18393/8e798ad74ef2cc4219b767bbe852e4f2/center-hero-altonmarketplace.jpg",
    "minRent": 2500,
    "maxRent": 3000,
    "coords": {
      "lat": 33.658102,
      "lng": -117.742759
    }
  },
  {
    "type": "retail",
    "name": "Alton Retail Center",
    "image": "https://images.ctfassets.net/l16b5usqno44/umb-media-18394/b864d46cbfd107b909ebd3e99af66f5a/center-hero-altonretailcenter.jpg",
    "minRent": 2500,
    "maxRent": 3000,
    "coords": {
      "lat": 33.65457,
      "lng": -117.738897
    }
  },
  {
    "type": "retail",
    "name": "Alton Square",
    "image": "https://images.ctfassets.net/l16b5usqno44/umb-media-73447/4c5cfafdc473d4176d05dccab3e8a5ee/ShopIC_HeroImage1280x495_AltonSquare2.jpg",
    "minRent": 2500,
    "maxRent": 3000,
    "coords": {
      "lat": 33.671314,
      "lng": -117.78922
    }
  },
  {
    "type": "retail",
    "name": "Campus Plaza",
    "image": "https://images.ctfassets.net/l16b5usqno44/umb-media-78574/f0e4a38d41c9e3081bde465de4e3da39/center-hero-campusplaza-2021.jpg",
    "minRent": 2500,
    "maxRent": 3000,
    "coords": {
      "lat": 33.649683,
      "lng": -117.831678
    }
  },
  {
    "type": "retail",
    "name": "Crossroads",
    "image": "https://images.ctfassets.net/l16b5usqno44/umb-media-73434/b486582b13ed3c9330af6c58f870a981/center-hero-crossroads-urbanplates.jpg",
    "minRent": 2500,
    "maxRent": 3000,
    "coords": {
      "lat": 33.684798,
      "lng": -117.811583
    }
  },
  {
    "type": "retail",
    "name": "Culver Plaza",
    "image": "https://images.ctfassets.net/l16b5usqno44/umb-media-36831/62331c3c08732316db374df35a5f18a7/center-hero-culverplaza-201703.jpg",
    "minRent": 2500,
    "maxRent": 3000,
    "coords": {
      "lat": 33.696175,
      "lng": -117.798923
    }
  },
  {
    "type": "retail",
    "name": "Cypress Village Shopping Center",
    "image": "https://images.ctfassets.net/l16b5usqno44/umb-media-73438/9a30c0bd725898b4f65e2e2f60726488/center-hero-cypressvillage-2019.jpg",
    "minRent": 2500,
    "maxRent": 3000,
    "coords": {
      "lat": 33.695619,
      "lng": -117.764228
    }
  },
  {
    "type": "retail",
    "name": "Harvard Place Auto Plaza",
    "image": "https://images.ctfassets.net/l16b5usqno44/umb-media-18403/9a70bea056f707b727c889d7400c1cf9/center-hero-harvardplaceautoplaza.jpg",
    "minRent": 2500,
    "maxRent": 3000,
    "coords": {
      "lat": 33.677915,
      "lng": -117.834329
    }
  },
  {
    "type": "retail",
    "name": "Harvard Place Shopping Center",
    "image": "https://images.ctfassets.net/l16b5usqno44/umb-media-36832/6db6eb0df722e31b1bb16a911cb02f4b/center-hero-harvardplace-201702.jpg",
    "minRent": 2500,
    "maxRent": 3000,
    "coords": {
      "lat": 33.676955,
      "lng": -117.832645
    }
  },
  {
    "type": "retail",
    "name": "Lakeside Plaza",
    "image": "https://images.ctfassets.net/l16b5usqno44/umb-media-18367/99847104585f478c98592a1eeec59666/lakesidecenter_1280x495.jpg",
    "minRent": 2500,
    "maxRent": 3000,
    "coords": {
      "lat": 33.678963,
      "lng": -117.799535
    }
  },
  {
    "type": "retail",
    "name": "Los Olivos Apartment Village",
    "image": "",
    "minRent": 2500,
    "maxRent": 3000,
    "coords": {
      "lat": 33.64529,
      "lng": -117.749301
    }
  },
  {
    "type": "retail",
    "name": "Los Olivos Marketplace | Irvine Spectrum",
    "image": "https://images.ctfassets.net/l16b5usqno44/umb-media-73448/9fc438fc06f9e2f4dc56b9feb670b53a/center-hero-losolivosmarketplace-wholefoods.jpg",
    "minRent": 2500,
    "maxRent": 3000,
    "coords": {
      "lat": 33.643498,
      "lng": -117.743972
    }
  },
  {
    "type": "retail",
    "name": "Northpark Plaza",
    "image": "https://images.ctfassets.net/l16b5usqno44/383GHgyxvsusMQl1xkksQH/4558b0619911e873d2df970415259f9c/center-hero-northpark-2020__1_.jpg",
    "minRent": 2500,
    "maxRent": 3000,
    "coords": {
      "lat": 33.721938,
      "lng": -117.771355
    }
  },
  {
    "type": "retail",
    "name": "Oak Creek Shopping Center",
    "image": "https://images.ctfassets.net/l16b5usqno44/umb-media-73445/0d3b6ca18cc82497164fc7713784254f/center-hero-oakcreek-2020-EDITED.jpg",
    "minRent": 2500,
    "maxRent": 3000,
    "coords": {
      "lat": 33.669655,
      "lng": -117.786339
    }
  },
  {
    "type": "retail",
    "name": "Orchard Hills Chopping Center",
    "image": "https://images.ctfassets.net/l16b5usqno44/umb-media-36833/3228b478e965cad15bf7fb7520cbe33b/ShopIC_HeroImage1280x495_OrchardHills.jpg",
    "minRent": 2500,
    "maxRent": 3000,
    "coords": {
      "lat": 33.734224,
      "lng": -117.760621
    }
  },
  {
    "type": "retail",
    "name": "Sand Canyon Plaza",
    "image": "https://images.ctfassets.net/l16b5usqno44/umb-media-73450/dc98a81f78f98bd3f65443b0e136c26b/center-hero-parkview-zionmart.jpg",
    "minRent": 2500,
    "maxRent": 3000,
    "coords": {
      "lat": 33.659329,
      "lng": -117.803111
    }
  },
  {
    "type": "retail",
    "name": "Quail Hill Shopping Center",
    "image": "https://images.ctfassets.net/l16b5usqno44/vYMHq0czwxrp8vl30ApCd/bfe96138ed2420fcecaec8360241998c/Center-Hero-QuailHill__1_.jpg",
    "minRent": 2500,
    "maxRent": 3000,
    "coords": {
      "lat": 33.655191,
      "lng": -117.778304
    }
  },
  {
    "type": "retail",
    "name": "Sand Canyon Plaza",
    "image": "https://images.ctfassets.net/l16b5usqno44/umb-media-73451/7dbbda8bdacb78648c9b66b647080a40/center-hero-sandcanyon-starbucks.jpg",
    "minRent": 2500,
    "maxRent": 3000,
    "coords": {
      "lat": 33.668867,
      "lng": -117.7647
    }
  },
  {
    "type": "retail",
    "name": "The Park at Irvine Spectrum",
    "image": "",
    "minRent": 2500,
    "maxRent": 3000,
    "coords": {
      "lat": 33.653451,
      "lng": -117.754078
    }
  },
  {
    "type": "retail",
    "name": "The Square",
    "image": "https://images.ctfassets.net/l16b5usqno44/umb-media-73444/b507429109bc1a3ac992c7dc2c8ba69f/center-hero-thesquare-2020.jpg",
    "minRent": 2500,
    "maxRent": 3000,
    "coords": {
      "lat": 33.686642,
      "lng": -117.855615
    }
  },
  {
    "type": "retail",
    "name": "The Village at Irvine Spectrum",
    "image": "https://images.ctfassets.net/l16b5usqno44/umb-media-33233/71b5ff948d1cc8c8403181e7e052c0d5/center-hero-thevillageapartments.jpg",
    "minRent": 2500,
    "maxRent": 3000,
    "coords": {
      "lat": 33.653589,
      "lng": -117.750396
    }
  },
  {
    "type": "retail",
    "name": "University Center",
    "image": "https://images.ctfassets.net/l16b5usqno44/3kH9bLw6CJJhVXEyWxC0or/0d87c27bf8a6bbcbe4e9d89b0905f2af/Center-Hero-UniversityCenter.jpg",
    "minRent": 2500,
    "maxRent": 3000,
    "coords": {
      "lat": 33.650438,
      "lng": -117.838931
    }
  },
  {
    "type": "retail",
    "name": "University Park Center",
    "image": "https://images.ctfassets.net/l16b5usqno44/umb-media-13457/b350e40e45ec2342fbfbf28da3f04c9e/universitypark_hero.jpg",
    "minRent": 2500,
    "maxRent": 3000,
    "coords": {
      "lat": 33.664423,
      "lng": -117.826131
    }
  },
  {
    "type": "retail",
    "name": "Venture Park",
    "image": "https://images.ctfassets.net/l16b5usqno44/6V8RoR6boDzNQYbJBeVHCj/b0ea4087f480eaa5776547085b81e75b/center-hero-executivepark.jpg",
    "minRent": 2500,
    "maxRent": 3000,
    "coords": {
      "lat": 33.685182,
      "lng": -117.856366
    }
  },
  {
    "type": "retail",
    "name": "Walnut Village Center",
    "image": "https://images.ctfassets.net/l16b5usqno44/umb-media-75315/9bf936b58719865224518ea9fc8f98f7/center-hero-walnutvillagecenter.jpg",
    "minRent": 2500,
    "maxRent": 3000,
    "coords": {
      "lat": 33.70598,
      "lng": -117.787797
    }
  },
  {
    "type": "retail",
    "name": "Westpark Plaza",
    "image": "https://images.ctfassets.net/l16b5usqno44/18ocppDvU7jQ5gqP1msOYB/b9c9e94e970ae1fab16e870953901a52/Center-Hero-WestparkPlaza.jpg",
    "minRent": 2500,
    "maxRent": 3000,
    "coords": {
      "lat": 33.683115,
      "lng": -117.814029
    }
  },
  {
    "type": "retail",
    "name": "Woodbridge Village Center",
    "image": "https://images.ctfassets.net/l16b5usqno44/umb-media-35801/4f3803359a42a045cf2fc4b2bc622b60/center-hero-woodbridgevillagecenter-201710.jpg",
    "minRent": 2500,
    "maxRent": 3000,
    "coords": {
      "lat": 33.677273,
      "lng": -117.799673
    }
  },
  {
    "type": "retail",
    "name": "Woodbury Town Center",
    "image": "https://images.ctfassets.net/l16b5usqno44/umb-media-36840/cffe2142a8d6fb39350a10d183dfc66f/center-hero-woodburytowncenter-201703.jpg",
    "minRent": 2500,
    "maxRent": 3000,
    "coords": {
      "lat": 33.6979,
      "lng": -117.741036
    }
  },
  {
    "type": "residential",
    "name": "Reserve at Orchard Hills",
    "image": "https://www.villagesofirvine.com/remote.axd/s3.amazonaws.com/villagesofirvine/media/395433/2.jpg?anchor=center&mode=crop&width=1440&height=600&quality=80&rnd=132167315610000000",
    "description": "Experience the prestige, natural tranquility and spectacular panoramas that distinguish this private village enclave. Stunning new home collections and a premier Irvine location heighten the extraordinary appeal of Reserve at Orchard Hills.",
    "minRent": 3500,
    "maxRent": 4000,
    "price": "Low $2 millions",
    "coords": [
      {
        "lat": 33.7276303,
        "lng": -117.7484682
      },
      {
        "lat": 33.724808284762155,
        "lng": -117.74598222537838
      },
      {
        "lat": 33.724965566155504,
        "lng": -117.7450607608215
      },
      {
        "lat": 33.72502208389029,
        "lng": -117.74327327774051
      },
      {
        "lat": 33.72503646493819,
        "lng": -117.74182865551154
      },
      {
        "lat": 33.72555356366562,
        "lng": -117.74052666026614
      },
      {
        "lat": 33.72594573506159,
        "lng": -117.73924612269286
      },
      {
        "lat": 33.72612745318469,
        "lng": -117.73866162321781
      },
      {
        "lat": 33.7263251422506,
        "lng": -117.73803635443119
      },
      {
        "lat": 33.72693921537149,
        "lng": -117.7370620591858
      },
      {
        "lat": 33.72753783806155,
        "lng": -117.73619225230095
      },
      {
        "lat": 33.72763414319727,
        "lng": -117.73572891301421
      },
      {
        "lat": 33.72807324171498,
        "lng": -117.73508651353916
      },
      {
        "lat": 33.728606120301016,
        "lng": -117.73433141035912
      },
      {
        "lat": 33.72882411634698,
        "lng": -117.73406706617891
      },
      {
        "lat": 33.7292005704087,
        "lng": -117.73381553178558
      },
      {
        "lat": 33.72980822460743,
        "lng": -117.73315906974489
      },
      {
        "lat": 33.730929930674826,
        "lng": -117.73358298085941
      },
      {
        "lat": 33.7319888424159,
        "lng": -117.73578370944824
      },
      {
        "lat": 33.73302475582746,
        "lng": -117.73610596659552
      },
      {
        "lat": 33.73295991497893,
        "lng": -117.73605213961184
      },
      {
        "lat": 33.73373493672582,
        "lng": -117.73603445495598
      },
      {
        "lat": 33.73449081423595,
        "lng": -117.73601059728395
      },
      {
        "lat": 33.734674824431046,
        "lng": -117.73599089728395
      },
      {
        "lat": 33.73523423635554,
        "lng": -117.73597402797242
      },
      {
        "lat": 33.73571317276537,
        "lng": -117.73596443167725
      },
      {
        "lat": 33.73642830929285,
        "lng": -117.7358657893493
      },
      {
        "lat": 33.737722633824845,
        "lng": -117.73415019092414
      },
      {
        "lat": 33.73807130840426,
        "lng": -117.73430365230104
      },
      {
        "lat": 33.738407092860264,
        "lng": -117.73459885971067
      },
      {
        "lat": 33.743494770021,
        "lng": -117.73254482318731
      },
      {
        "lat": 33.745605568833746,
        "lng": -117.73282825758065
      },
      {
        "lat": 33.74699781340961,
        "lng": -117.73356171843261
      },
      {
        "lat": 33.74857063690399,
        "lng": -117.73399964118647
      },
      {
        "lat": 33.7505398982177,
        "lng": -117.7345903829895
      },
      {
        "lat": 33.7509952463316,
        "lng": -117.73562300521849
      },
      {
        "lat": 33.75155566324328,
        "lng": -117.73666814279176
      },
      {
        "lat": 33.75148054374818,
        "lng": -117.7368372734802
      },
      {
        "lat": 33.75156920484603,
        "lng": -117.73709936554559
      },
      {
        "lat": 33.7520452695297,
        "lng": -117.73739899993893
      },
      {
        "lat": 33.752358742524436,
        "lng": -117.73800106872557
      },
      {
        "lat": 33.75266790456761,
        "lng": -117.73830273010253
      },
      {
        "lat": 33.752944318512654,
        "lng": -117.73861564544677
      },
      {
        "lat": 33.75308231773989,
        "lng": -117.73903856079102
      },
      {
        "lat": 33.75320522976043,
        "lng": -117.73974334121704
      },
      {
        "lat": 33.75335382550978,
        "lng": -117.74022917190553
      },
      {
        "lat": 33.75349595481523,
        "lng": -117.74085666397093
      },
      {
        "lat": 33.75357240848947,
        "lng": -117.7414110369873
      },
      {
        "lat": 33.75388372606307,
        "lng": -117.74211937561034
      },
      {
        "lat": 33.75411074689528,
        "lng": -117.74283978302003
      },
      {
        "lat": 33.754120930520834,
        "lng": -117.74292856079097
      },
      {
        "lat": 33.754112493624746,
        "lng": -117.74278483062744
      },
      {
        "lat": 33.75412973997623,
        "lng": -117.74273150787354
      },
      {
        "lat": 33.75419697759423,
        "lng": -117.74288994649658
      },
      {
        "lat": 33.75498527128285,
        "lng": -117.74443232269289
      },
      {
        "lat": 33.75496624649442,
        "lng": -117.74435567718507
      },
      {
        "lat": 33.75493326929798,
        "lng": -117.74441127348024
      },
      {
        "lat": 33.75514483222401,
        "lng": -117.74428796977543
      },
      {
        "lat": 33.75496747158276,
        "lng": -117.74433836289063
      },
      {
        "lat": 33.7550611725855,
        "lng": -117.74425397453001
      },
      {
        "lat": 33.75506697156174,
        "lng": -117.744316545694
      },
      {
        "lat": 33.75496425469146,
        "lng": -117.74438934754636
      },
      {
        "lat": 33.75512271444806,
        "lng": -117.74430810336611
      },
      {
        "lat": 33.75494656332784,
        "lng": -117.74426921685796
      },
      {
        "lat": 33.75510079395258,
        "lng": -117.74427771685794
      },
      {
        "lat": 33.75504555650726,
        "lng": -117.74435518987434
      },
      {
        "lat": 33.755030999008056,
        "lng": -117.74429055918586
      },
      {
        "lat": 33.75499561226188,
        "lng": -117.74426401315304
      },
      {
        "lat": 33.75506158805077,
        "lng": -117.74440925918577
      },
      {
        "lat": 33.75508113656938,
        "lng": -117.74430525177621
      },
      {
        "lat": 33.755035198405366,
        "lng": -117.74429862108764
      },
      {
        "lat": 33.755061319671725,
        "lng": -117.74436577505492
      },
      {
        "lat": 33.75505613423244,
        "lng": -117.74439427505484
      },
      {
        "lat": 33.7549622469238,
        "lng": -117.74444483272697
      },
      {
        "lat": 33.75503982119674,
        "lng": -117.7443308290222
      },
      {
        "lat": 33.75505220233441,
        "lng": -117.74431769462888
      },
      {
        "lat": 33.7550198919623,
        "lng": -117.74446812531744
      },
      {
        "lat": 33.75518711097473,
        "lng": -117.74430390626833
      },
      {
        "lat": 33.755055486600135,
        "lng": -117.74438137928462
      },
      {
        "lat": 33.7549781660205,
        "lng": -117.74440952584229
      },
      {
        "lat": 33.755056826387545,
        "lng": -117.74426672213752
      },
      {
        "lat": 33.75510760378241,
        "lng": -117.7442926454163
      },
      {
        "lat": 33.754937998952855,
        "lng": -117.7443000454162
      },
      {
        "lat": 33.75492915730111,
        "lng": -117.74439327610474
      },
      {
        "lat": 33.75510036159543,
        "lng": -117.7443904993836
      },
      {
        "lat": 33.755030057201495,
        "lng": -117.7444497147278
      },
      {
        "lat": 33.75497329388077,
        "lng": -117.74430828033456
      },
      {
        "lat": 33.755029172747754,
        "lng": -117.74431516128539
      },
      {
        "lat": 33.755068987912345,
        "lng": -117.74434455017098
      },
      {
        "lat": 33.75494708177293,
        "lng": -117.7443335316467
      },
      {
        "lat": 33.754978654352,
        "lng": -117.74431041259766
      },
      {
        "lat": 33.755068851792004,
        "lng": -117.74442312423707
      },
      {
        "lat": 33.75497554319469,
        "lng": -117.7443514628601
      },
      {
        "lat": 33.755054275301205,
        "lng": -117.74445146286024
      },
      {
        "lat": 33.755083903594425,
        "lng": -117.74431980148313
      },
      {
        "lat": 33.755065584774584,
        "lng": -117.74433834381108
      },
      {
        "lat": 33.75501011767121,
        "lng": -117.74452271682742
      },
      {
        "lat": 33.756243463937224,
        "lng": -117.74609163482671
      },
      {
        "lat": 33.75673888282886,
        "lng": -117.74679912689209
      },
      {
        "lat": 33.75854717741757,
        "lng": -117.74873407928465
      },
      {
        "lat": 33.75842309050442,
        "lng": -117.75073655548096
      },
      {
        "lat": 33.75847740007448,
        "lng": -117.75285442321774
      },
      {
        "lat": 33.75869295703425,
        "lng": -117.7535185925293
      },
      {
        "lat": 33.76172436727278,
        "lng": -117.75268530151374
      },
      {
        "lat": 33.76189412530143,
        "lng": -117.75359028564458
      },
      {
        "lat": 33.761806297660456,
        "lng": -117.75429526977541
      },
      {
        "lat": 33.76173415113601,
        "lng": -117.75488442321785
      },
      {
        "lat": 33.76295697625968,
        "lng": -117.75851307403565
      },
      {
        "lat": 33.75653890405154,
        "lng": -117.76209755554203
      },
      {
        "lat": 33.753338791029016,
        "lng": -117.76332460845947
      },
      {
        "lat": 33.74686,
        "lng": -117.76424
      },
      {
        "lat": 33.74649,
        "lng": -117.76429
      },
      {
        "lat": 33.7458299,
        "lng": -117.76437
      },
      {
        "lat": 33.74567,
        "lng": -117.76439
      },
      {
        "lat": 33.74531,
        "lng": -117.76442
      },
      {
        "lat": 33.7452596,
        "lng": -117.7644263
      },
      {
        "lat": 33.74452,
        "lng": -117.76452
      },
      {
        "lat": 33.7444789,
        "lng": -117.7645252
      },
      {
        "lat": 33.74373,
        "lng": -117.76462
      },
      {
        "lat": 33.74357,
        "lng": -117.76462
      },
      {
        "lat": 33.74345,
        "lng": -117.76461
      },
      {
        "lat": 33.74325,
        "lng": -117.76455
      },
      {
        "lat": 33.74294,
        "lng": -117.76435
      },
      {
        "lat": 33.742813,
        "lng": -117.7646728
      },
      {
        "lat": 33.742813,
        "lng": -117.7646728
      },
      {
        "lat": 33.742813,
        "lng": -117.7646728
      },
      {
        "lat": 33.7428127,
        "lng": -117.7646744
      },
      {
        "lat": 33.7428123,
        "lng": -117.7646764
      },
      {
        "lat": 33.7428117,
        "lng": -117.7646791
      },
      {
        "lat": 33.7428109,
        "lng": -117.7646825
      },
      {
        "lat": 33.7428098,
        "lng": -117.7646865
      },
      {
        "lat": 33.7428086,
        "lng": -117.7646912
      },
      {
        "lat": 33.7428072,
        "lng": -117.7646965
      },
      {
        "lat": 33.7428055,
        "lng": -117.7647024
      },
      {
        "lat": 33.7428036,
        "lng": -117.7647089
      },
      {
        "lat": 33.7428014,
        "lng": -117.7647158
      },
      {
        "lat": 33.742799,
        "lng": -117.7647232
      },
      {
        "lat": 33.7427963,
        "lng": -117.7647311
      },
      {
        "lat": 33.7427934,
        "lng": -117.7647394
      },
      {
        "lat": 33.7427902,
        "lng": -117.7647481
      },
      {
        "lat": 33.7427866,
        "lng": -117.7647571
      },
      {
        "lat": 33.7427828,
        "lng": -117.7647665
      },
      {
        "lat": 33.7427787,
        "lng": -117.7647762
      },
      {
        "lat": 33.7427742,
        "lng": -117.7647861
      },
      {
        "lat": 33.7427694,
        "lng": -117.7647962
      },
      {
        "lat": 33.7427643,
        "lng": -117.7648066
      },
      {
        "lat": 33.7427589,
        "lng": -117.7648171
      },
      {
        "lat": 33.742753,
        "lng": -117.7648278
      },
      {
        "lat": 33.7427469,
        "lng": -117.7648385
      },
      {
        "lat": 33.7427403,
        "lng": -117.7648494
      },
      {
        "lat": 33.7427334,
        "lng": -117.7648602
      },
      {
        "lat": 33.7427261,
        "lng": -117.7648711
      },
      {
        "lat": 33.7427184,
        "lng": -117.764882
      },
      {
        "lat": 33.7427102,
        "lng": -117.7648928
      },
      {
        "lat": 33.7427017,
        "lng": -117.7649036
      },
      {
        "lat": 33.7426928,
        "lng": -117.7649142
      },
      {
        "lat": 33.7426834,
        "lng": -117.7649247
      },
      {
        "lat": 33.7426735,
        "lng": -117.764935
      },
      {
        "lat": 33.7426633,
        "lng": -117.7649451
      },
      {
        "lat": 33.7426525,
        "lng": -117.764955
      },
      {
        "lat": 33.7426413,
        "lng": -117.7649646
      },
      {
        "lat": 33.7426296,
        "lng": -117.7649739
      },
      {
        "lat": 33.7426175,
        "lng": -117.7649829
      },
      {
        "lat": 33.7426048,
        "lng": -117.7649915
      },
      {
        "lat": 33.7425916,
        "lng": -117.7649997
      },
      {
        "lat": 33.742578,
        "lng": -117.7650074
      },
      {
        "lat": 33.7425638,
        "lng": -117.7650148
      },
      {
        "lat": 33.742549,
        "lng": -117.7650216
      },
      {
        "lat": 33.7425338,
        "lng": -117.7650279
      },
      {
        "lat": 33.742518,
        "lng": -117.7650337
      },
      {
        "lat": 33.7425016,
        "lng": -117.7650389
      },
      {
        "lat": 33.7424847,
        "lng": -117.7650434
      },
      {
        "lat": 33.7424672,
        "lng": -117.7650474
      },
      {
        "lat": 33.7424491,
        "lng": -117.7650506
      },
      {
        "lat": 33.7424304,
        "lng": -117.7650532
      },
      {
        "lat": 33.7424304,
        "lng": -117.7650532
      },
      {
        "lat": 33.7423865,
        "lng": -117.765057
      },
      {
        "lat": 33.7423604,
        "lng": -117.7650586
      },
      {
        "lat": 33.7423316,
        "lng": -117.7650599
      },
      {
        "lat": 33.7423002,
        "lng": -117.765061
      },
      {
        "lat": 33.7422666,
        "lng": -117.7650618
      },
      {
        "lat": 33.7422307,
        "lng": -117.7650625
      },
      {
        "lat": 33.7421927,
        "lng": -117.7650629
      },
      {
        "lat": 33.7421527,
        "lng": -117.7650632
      },
      {
        "lat": 33.742111,
        "lng": -117.7650633
      },
      {
        "lat": 33.7420676,
        "lng": -117.7650632
      },
      {
        "lat": 33.7420226,
        "lng": -117.7650629
      },
      {
        "lat": 33.7419762,
        "lng": -117.7650625
      },
      {
        "lat": 33.7419286,
        "lng": -117.765062
      },
      {
        "lat": 33.7418798,
        "lng": -117.7650613
      },
      {
        "lat": 33.74183,
        "lng": -117.7650604
      },
      {
        "lat": 33.7417794,
        "lng": -117.7650595
      },
      {
        "lat": 33.741728,
        "lng": -117.7650584
      },
      {
        "lat": 33.7416761,
        "lng": -117.7650572
      },
      {
        "lat": 33.7416238,
        "lng": -117.7650559
      },
      {
        "lat": 33.7415711,
        "lng": -117.7650546
      },
      {
        "lat": 33.7415182,
        "lng": -117.7650531
      },
      {
        "lat": 33.7414654,
        "lng": -117.7650516
      },
      {
        "lat": 33.7414126,
        "lng": -117.7650501
      },
      {
        "lat": 33.7413601,
        "lng": -117.7650484
      },
      {
        "lat": 33.7413079,
        "lng": -117.7650468
      },
      {
        "lat": 33.7412563,
        "lng": -117.7650451
      },
      {
        "lat": 33.7412053,
        "lng": -117.7650434
      },
      {
        "lat": 33.7411551,
        "lng": -117.7650416
      },
      {
        "lat": 33.7411059,
        "lng": -117.7650399
      },
      {
        "lat": 33.7410577,
        "lng": -117.7650381
      },
      {
        "lat": 33.7410107,
        "lng": -117.7650364
      },
      {
        "lat": 33.7409651,
        "lng": -117.7650346
      },
      {
        "lat": 33.7409209,
        "lng": -117.7650329
      },
      {
        "lat": 33.7408783,
        "lng": -117.7650313
      },
      {
        "lat": 33.7408375,
        "lng": -117.7650297
      },
      {
        "lat": 33.7407986,
        "lng": -117.7650281
      },
      {
        "lat": 33.7407617,
        "lng": -117.7650266
      },
      {
        "lat": 33.740727,
        "lng": -117.7650251
      },
      {
        "lat": 33.7406946,
        "lng": -117.7650238
      },
      {
        "lat": 33.7406646,
        "lng": -117.7650225
      },
      {
        "lat": 33.7406371,
        "lng": -117.7650213
      },
      {
        "lat": 33.7406124,
        "lng": -117.7650203
      },
      {
        "lat": 33.7405906,
        "lng": -117.7650193
      },
      {
        "lat": 33.7405717,
        "lng": -117.7650185
      },
      {
        "lat": 33.740556,
        "lng": -117.7650178
      },
      {
        "lat": 33.7405435,
        "lng": -117.7650172
      },
      {
        "lat": 33.7405344,
        "lng": -117.7650168
      },
      {
        "lat": 33.7405288,
        "lng": -117.7650166
      },
      {
        "lat": 33.740527,
        "lng": -117.7650165
      },
      {
        "lat": 33.7395765,
        "lng": -117.7657062
      },
      {
        "lat": 33.7395765,
        "lng": -117.7657062
      },
      {
        "lat": 33.7395765,
        "lng": -117.7657062
      },
      {
        "lat": 33.7395739,
        "lng": -117.7657044
      },
      {
        "lat": 33.7395706,
        "lng": -117.7657021
      },
      {
        "lat": 33.7395661,
        "lng": -117.765699
      },
      {
        "lat": 33.7395605,
        "lng": -117.7656952
      },
      {
        "lat": 33.7395537,
        "lng": -117.7656905
      },
      {
        "lat": 33.7395458,
        "lng": -117.7656851
      },
      {
        "lat": 33.7395368,
        "lng": -117.765679
      },
      {
        "lat": 33.7395269,
        "lng": -117.7656722
      },
      {
        "lat": 33.739516,
        "lng": -117.7656647
      },
      {
        "lat": 33.7395042,
        "lng": -117.7656566
      },
      {
        "lat": 33.7394915,
        "lng": -117.7656479
      },
      {
        "lat": 33.7394781,
        "lng": -117.7656387
      },
      {
        "lat": 33.7394638,
        "lng": -117.765629
      },
      {
        "lat": 33.7394488,
        "lng": -117.7656187
      },
      {
        "lat": 33.7394331,
        "lng": -117.765608
      },
      {
        "lat": 33.7394168,
        "lng": -117.7655968
      },
      {
        "lat": 33.7393999,
        "lng": -117.7655852
      },
      {
        "lat": 33.7393825,
        "lng": -117.7655733
      },
      {
        "lat": 33.7393645,
        "lng": -117.765561
      },
      {
        "lat": 33.7393461,
        "lng": -117.7655484
      },
      {
        "lat": 33.7393273,
        "lng": -117.7655355
      },
      {
        "lat": 33.7393081,
        "lng": -117.7655224
      },
      {
        "lat": 33.7392886,
        "lng": -117.765509
      },
      {
        "lat": 33.7392688,
        "lng": -117.7654955
      },
      {
        "lat": 33.7392487,
        "lng": -117.7654818
      },
      {
        "lat": 33.7392285,
        "lng": -117.765468
      },
      {
        "lat": 33.7392081,
        "lng": -117.765454
      },
      {
        "lat": 33.7391877,
        "lng": -117.7654401
      },
      {
        "lat": 33.7391672,
        "lng": -117.765426
      },
      {
        "lat": 33.7391467,
        "lng": -117.765412
      },
      {
        "lat": 33.7391262,
        "lng": -117.765398
      },
      {
        "lat": 33.7391058,
        "lng": -117.7653841
      },
      {
        "lat": 33.7390855,
        "lng": -117.7653703
      },
      {
        "lat": 33.7390654,
        "lng": -117.7653565
      },
      {
        "lat": 33.7390456,
        "lng": -117.765343
      },
      {
        "lat": 33.739026,
        "lng": -117.7653296
      },
      {
        "lat": 33.7390067,
        "lng": -117.7653164
      },
      {
        "lat": 33.7389877,
        "lng": -117.7653035
      },
      {
        "lat": 33.7389692,
        "lng": -117.7652909
      },
      {
        "lat": 33.7389511,
        "lng": -117.7652785
      },
      {
        "lat": 33.7389335,
        "lng": -117.7652666
      },
      {
        "lat": 33.7389164,
        "lng": -117.7652549
      },
      {
        "lat": 33.7388999,
        "lng": -117.7652437
      },
      {
        "lat": 33.738884,
        "lng": -117.7652329
      },
      {
        "lat": 33.7388688,
        "lng": -117.7652226
      },
      {
        "lat": 33.7388543,
        "lng": -117.7652128
      },
      {
        "lat": 33.7388406,
        "lng": -117.7652035
      },
      {
        "lat": 33.7388277,
        "lng": -117.7651947
      },
      {
        "lat": 33.7388156,
        "lng": -117.7651865
      },
      {
        "lat": 33.7388156,
        "lng": -117.7651865
      },
      {
        "lat": 33.7387902,
        "lng": -117.7651699
      },
      {
        "lat": 33.738776,
        "lng": -117.7651609
      },
      {
        "lat": 33.7387608,
        "lng": -117.7651515
      },
      {
        "lat": 33.7387446,
        "lng": -117.7651417
      },
      {
        "lat": 33.7387276,
        "lng": -117.7651315
      },
      {
        "lat": 33.7387097,
        "lng": -117.7651209
      },
      {
        "lat": 33.738691,
        "lng": -117.76511
      },
      {
        "lat": 33.7386716,
        "lng": -117.7650988
      },
      {
        "lat": 33.7386514,
        "lng": -117.7650873
      },
      {
        "lat": 33.7386305,
        "lng": -117.7650756
      },
      {
        "lat": 33.738609,
        "lng": -117.7650635
      },
      {
        "lat": 33.7385869,
        "lng": -117.7650513
      },
      {
        "lat": 33.7385642,
        "lng": -117.7650388
      },
      {
        "lat": 33.738541,
        "lng": -117.7650262
      },
      {
        "lat": 33.7385173,
        "lng": -117.7650133
      },
      {
        "lat": 33.7384932,
        "lng": -117.7650004
      },
      {
        "lat": 33.7384687,
        "lng": -117.7649873
      },
      {
        "lat": 33.7384439,
        "lng": -117.764974
      },
      {
        "lat": 33.7384187,
        "lng": -117.7649607
      },
      {
        "lat": 33.7383932,
        "lng": -117.7649474
      },
      {
        "lat": 33.7383675,
        "lng": -117.764934
      },
      {
        "lat": 33.7383417,
        "lng": -117.7649205
      },
      {
        "lat": 33.7383156,
        "lng": -117.7649071
      },
      {
        "lat": 33.7382895,
        "lng": -117.7648937
      },
      {
        "lat": 33.7382633,
        "lng": -117.7648803
      },
      {
        "lat": 33.7382371,
        "lng": -117.764867
      },
      {
        "lat": 33.7382109,
        "lng": -117.7648538
      },
      {
        "lat": 33.7381847,
        "lng": -117.7648406
      },
      {
        "lat": 33.7381586,
        "lng": -117.7648276
      },
      {
        "lat": 33.7381327,
        "lng": -117.7648147
      },
      {
        "lat": 33.738107,
        "lng": -117.764802
      },
      {
        "lat": 33.7380815,
        "lng": -117.7647895
      },
      {
        "lat": 33.7380562,
        "lng": -117.7647772
      },
      {
        "lat": 33.7380312,
        "lng": -117.7647651
      },
      {
        "lat": 33.7380066,
        "lng": -117.7647533
      },
      {
        "lat": 33.7379824,
        "lng": -117.7647417
      },
      {
        "lat": 33.7379586,
        "lng": -117.7647304
      },
      {
        "lat": 33.7379352,
        "lng": -117.7647194
      },
      {
        "lat": 33.7379124,
        "lng": -117.7647088
      },
      {
        "lat": 33.7378901,
        "lng": -117.7646985
      },
      {
        "lat": 33.7378685,
        "lng": -117.7646886
      },
      {
        "lat": 33.7378474,
        "lng": -117.764679
      },
      {
        "lat": 33.737827,
        "lng": -117.7646699
      },
      {
        "lat": 33.7378073,
        "lng": -117.7646612
      },
      {
        "lat": 33.7377884,
        "lng": -117.764653
      },
      {
        "lat": 33.7377703,
        "lng": -117.7646453
      },
      {
        "lat": 33.737753,
        "lng": -117.764638
      },
      {
        "lat": 33.7377366,
        "lng": -117.7646313
      },
      {
        "lat": 33.7377212,
        "lng": -117.7646251
      },
      {
        "lat": 33.7377212,
        "lng": -117.7646251
      },
      {
        "lat": 33.7376851,
        "lng": -117.764611
      },
      {
        "lat": 33.7376626,
        "lng": -117.7646023
      },
      {
        "lat": 33.7376374,
        "lng": -117.7645926
      },
      {
        "lat": 33.7376095,
        "lng": -117.7645818
      },
      {
        "lat": 33.737579,
        "lng": -117.7645701
      },
      {
        "lat": 33.7375461,
        "lng": -117.7645575
      },
      {
        "lat": 33.7375109,
        "lng": -117.7645439
      },
      {
        "lat": 33.7374735,
        "lng": -117.7645295
      },
      {
        "lat": 33.7374339,
        "lng": -117.7645142
      },
      {
        "lat": 33.7373924,
        "lng": -117.7644982
      },
      {
        "lat": 33.737349,
        "lng": -117.7644814
      },
      {
        "lat": 33.7373038,
        "lng": -117.7644639
      },
      {
        "lat": 33.737257,
        "lng": -117.7644458
      },
      {
        "lat": 33.7372086,
        "lng": -117.7644269
      },
      {
        "lat": 33.7371588,
        "lng": -117.7644075
      },
      {
        "lat": 33.7371077,
        "lng": -117.7643875
      },
      {
        "lat": 33.7370554,
        "lng": -117.764367
      },
      {
        "lat": 33.737002,
        "lng": -117.764346
      },
      {
        "lat": 33.7369476,
        "lng": -117.7643245
      },
      {
        "lat": 33.7368924,
        "lng": -117.7643026
      },
      {
        "lat": 33.7368364,
        "lng": -117.7642803
      },
      {
        "lat": 33.7367798,
        "lng": -117.7642577
      },
      {
        "lat": 33.7367226,
        "lng": -117.7642348
      },
      {
        "lat": 33.7366651,
        "lng": -117.7642116
      },
      {
        "lat": 33.7366072,
        "lng": -117.7641881
      },
      {
        "lat": 33.7365492,
        "lng": -117.7641645
      },
      {
        "lat": 33.7364911,
        "lng": -117.7641406
      },
      {
        "lat": 33.736433,
        "lng": -117.7641167
      },
      {
        "lat": 33.7363751,
        "lng": -117.7640927
      },
      {
        "lat": 33.7363175,
        "lng": -117.7640686
      },
      {
        "lat": 33.7362602,
        "lng": -117.7640445
      },
      {
        "lat": 33.7362034,
        "lng": -117.7640204
      },
      {
        "lat": 33.7361473,
        "lng": -117.7639964
      },
      {
        "lat": 33.7360918,
        "lng": -117.7639724
      },
      {
        "lat": 33.7360372,
        "lng": -117.7639486
      },
      {
        "lat": 33.7359836,
        "lng": -117.763925
      },
      {
        "lat": 33.7359309,
        "lng": -117.7639016
      },
      {
        "lat": 33.7358795,
        "lng": -117.7638784
      },
      {
        "lat": 33.7358294,
        "lng": -117.7638555
      },
      {
        "lat": 33.7357806,
        "lng": -117.7638329
      },
      {
        "lat": 33.7357334,
        "lng": -117.7638106
      },
      {
        "lat": 33.7356877,
        "lng": -117.7637888
      },
      {
        "lat": 33.7356438,
        "lng": -117.7637673
      },
      {
        "lat": 33.7356018,
        "lng": -117.7637464
      },
      {
        "lat": 33.7355617,
        "lng": -117.7637259
      },
      {
        "lat": 33.7355237,
        "lng": -117.7637059
      },
      {
        "lat": 33.7354879,
        "lng": -117.7636866
      },
      {
        "lat": 33.7354544,
        "lng": -117.7636678
      },
      {
        "lat": 33.7354233,
        "lng": -117.7636497
      },
      {
        "lat": 33.7354233,
        "lng": -117.7636497
      },
      {
        "lat": 33.7353061,
        "lng": -117.7635775
      },
      {
        "lat": 33.7352486,
        "lng": -117.7635403
      },
      {
        "lat": 33.7351917,
        "lng": -117.7635023
      },
      {
        "lat": 33.7351355,
        "lng": -117.7634637
      },
      {
        "lat": 33.73508,
        "lng": -117.7634245
      },
      {
        "lat": 33.7350253,
        "lng": -117.7633848
      },
      {
        "lat": 33.7349712,
        "lng": -117.7633445
      },
      {
        "lat": 33.734918,
        "lng": -117.7633038
      },
      {
        "lat": 33.7348654,
        "lng": -117.7632627
      },
      {
        "lat": 33.7348136,
        "lng": -117.7632212
      },
      {
        "lat": 33.7347627,
        "lng": -117.7631794
      },
      {
        "lat": 33.7347125,
        "lng": -117.7631374
      },
      {
        "lat": 33.734663,
        "lng": -117.7630952
      },
      {
        "lat": 33.7346145,
        "lng": -117.7630528
      },
      {
        "lat": 33.7345667,
        "lng": -117.7630103
      },
      {
        "lat": 33.7345197,
        "lng": -117.7629677
      },
      {
        "lat": 33.7344737,
        "lng": -117.7629252
      },
      {
        "lat": 33.7344284,
        "lng": -117.7628827
      },
      {
        "lat": 33.7343841,
        "lng": -117.7628403
      },
      {
        "lat": 33.7343406,
        "lng": -117.762798
      },
      {
        "lat": 33.734298,
        "lng": -117.7627559
      },
      {
        "lat": 33.7342563,
        "lng": -117.7627141
      },
      {
        "lat": 33.7342155,
        "lng": -117.7626726
      },
      {
        "lat": 33.7341757,
        "lng": -117.7626314
      },
      {
        "lat": 33.7341368,
        "lng": -117.7625906
      },
      {
        "lat": 33.7340988,
        "lng": -117.7625502
      },
      {
        "lat": 33.7340618,
        "lng": -117.7625104
      },
      {
        "lat": 33.7340258,
        "lng": -117.7624711
      },
      {
        "lat": 33.7339908,
        "lng": -117.7624324
      },
      {
        "lat": 33.7339568,
        "lng": -117.7623943
      },
      {
        "lat": 33.7339237,
        "lng": -117.7623569
      },
      {
        "lat": 33.7338917,
        "lng": -117.7623203
      },
      {
        "lat": 33.7338608,
        "lng": -117.7622844
      },
      {
        "lat": 33.7338308,
        "lng": -117.7622494
      },
      {
        "lat": 33.733802,
        "lng": -117.7622153
      },
      {
        "lat": 33.7337741,
        "lng": -117.7621822
      },
      {
        "lat": 33.7337474,
        "lng": -117.76215
      },
      {
        "lat": 33.7337218,
        "lng": -117.7621189
      },
      {
        "lat": 33.7336972,
        "lng": -117.7620888
      },
      {
        "lat": 33.7336738,
        "lng": -117.76206
      },
      {
        "lat": 33.7336515,
        "lng": -117.7620323
      },
      {
        "lat": 33.7336303,
        "lng": -117.7620058
      },
      {
        "lat": 33.7336103,
        "lng": -117.7619807
      },
      {
        "lat": 33.7335915,
        "lng": -117.7619569
      },
      {
        "lat": 33.7335738,
        "lng": -117.7619344
      },
      {
        "lat": 33.7335573,
        "lng": -117.7619135
      },
      {
        "lat": 33.733542,
        "lng": -117.761894
      },
      {
        "lat": 33.7335279,
        "lng": -117.761876
      },
      {
        "lat": 33.733515,
        "lng": -117.7618597
      },
      {
        "lat": 33.733515,
        "lng": -117.7618597
      },
      {
        "lat": 33.7334828,
        "lng": -117.7618169
      },
      {
        "lat": 33.7334612,
        "lng": -117.7617872
      },
      {
        "lat": 33.7334362,
        "lng": -117.7617521
      },
      {
        "lat": 33.7334079,
        "lng": -117.7617121
      },
      {
        "lat": 33.7333764,
        "lng": -117.7616672
      },
      {
        "lat": 33.733342,
        "lng": -117.7616178
      },
      {
        "lat": 33.7333048,
        "lng": -117.761564
      },
      {
        "lat": 33.7332649,
        "lng": -117.7615062
      },
      {
        "lat": 33.7332225,
        "lng": -117.7614446
      },
      {
        "lat": 33.7331778,
        "lng": -117.7613794
      },
      {
        "lat": 33.733131,
        "lng": -117.7613108
      },
      {
        "lat": 33.7330821,
        "lng": -117.7612391
      },
      {
        "lat": 33.7330314,
        "lng": -117.7611645
      },
      {
        "lat": 33.732979,
        "lng": -117.7610873
      },
      {
        "lat": 33.732925,
        "lng": -117.7610077
      },
      {
        "lat": 33.7328697,
        "lng": -117.760926
      },
      {
        "lat": 33.7328132,
        "lng": -117.7608423
      },
      {
        "lat": 33.7327556,
        "lng": -117.760757
      },
      {
        "lat": 33.7326971,
        "lng": -117.7606703
      },
      {
        "lat": 33.732638,
        "lng": -117.7605823
      },
      {
        "lat": 33.7325782,
        "lng": -117.7604934
      },
      {
        "lat": 33.732518,
        "lng": -117.7604038
      },
      {
        "lat": 33.7324576,
        "lng": -117.7603138
      },
      {
        "lat": 33.7323971,
        "lng": -117.7602235
      },
      {
        "lat": 33.7323366,
        "lng": -117.7601332
      },
      {
        "lat": 33.7322764,
        "lng": -117.7600431
      },
      {
        "lat": 33.7322166,
        "lng": -117.7599536
      },
      {
        "lat": 33.7321573,
        "lng": -117.7598648
      },
      {
        "lat": 33.7320987,
        "lng": -117.7597769
      },
      {
        "lat": 33.732041,
        "lng": -117.7596903
      },
      {
        "lat": 33.7319844,
        "lng": -117.7596051
      },
      {
        "lat": 33.7319289,
        "lng": -117.7595216
      },
      {
        "lat": 33.7318747,
        "lng": -117.7594401
      },
      {
        "lat": 33.7318221,
        "lng": -117.7593607
      },
      {
        "lat": 33.7317711,
        "lng": -117.7592837
      },
      {
        "lat": 33.731722,
        "lng": -117.7592094
      },
      {
        "lat": 33.7316749,
        "lng": -117.759138
      },
      {
        "lat": 33.7316299,
        "lng": -117.7590697
      },
      {
        "lat": 33.7315872,
        "lng": -117.7590048
      },
      {
        "lat": 33.731547,
        "lng": -117.7589435
      },
      {
        "lat": 33.7315094,
        "lng": -117.758886
      },
      {
        "lat": 33.7314745,
        "lng": -117.7588327
      },
      {
        "lat": 33.7314427,
        "lng": -117.7587837
      },
      {
        "lat": 33.7314139,
        "lng": -117.7587392
      },
      {
        "lat": 33.7313884,
        "lng": -117.7586996
      },
      {
        "lat": 33.7313664,
        "lng": -117.758665
      },
      {
        "lat": 33.7313479,
        "lng": -117.7586358
      },
      {
        "lat": 33.7313332,
        "lng": -117.758612
      },
      {
        "lat": 33.7313224,
        "lng": -117.7585941
      },
      {
        "lat": 33.7313224,
        "lng": -117.7585941
      },
      {
        "lat": 33.7312674,
        "lng": -117.7584962
      },
      {
        "lat": 33.7312402,
        "lng": -117.7584443
      },
      {
        "lat": 33.7312131,
        "lng": -117.7583907
      },
      {
        "lat": 33.7311862,
        "lng": -117.7583353
      },
      {
        "lat": 33.7311595,
        "lng": -117.7582782
      },
      {
        "lat": 33.731133,
        "lng": -117.7582196
      },
      {
        "lat": 33.7311067,
        "lng": -117.7581594
      },
      {
        "lat": 33.7310807,
        "lng": -117.7580978
      },
      {
        "lat": 33.7310549,
        "lng": -117.7580349
      },
      {
        "lat": 33.7310293,
        "lng": -117.7579706
      },
      {
        "lat": 33.731004,
        "lng": -117.7579052
      },
      {
        "lat": 33.730979,
        "lng": -117.7578386
      },
      {
        "lat": 33.7309543,
        "lng": -117.757771
      },
      {
        "lat": 33.7309299,
        "lng": -117.7577024
      },
      {
        "lat": 33.7309058,
        "lng": -117.7576329
      },
      {
        "lat": 33.7308821,
        "lng": -117.7575626
      },
      {
        "lat": 33.7308587,
        "lng": -117.7574915
      },
      {
        "lat": 33.7308357,
        "lng": -117.7574198
      },
      {
        "lat": 33.730813,
        "lng": -117.7573475
      },
      {
        "lat": 33.7307907,
        "lng": -117.7572747
      },
      {
        "lat": 33.7307688,
        "lng": -117.7572014
      },
      {
        "lat": 33.7307474,
        "lng": -117.7571278
      },
      {
        "lat": 33.7307263,
        "lng": -117.7570539
      },
      {
        "lat": 33.7307057,
        "lng": -117.7569797
      },
      {
        "lat": 33.7306855,
        "lng": -117.7569055
      },
      {
        "lat": 33.7306658,
        "lng": -117.7568312
      },
      {
        "lat": 33.7306466,
        "lng": -117.7567569
      },
      {
        "lat": 33.7306278,
        "lng": -117.7566827
      },
      {
        "lat": 33.7306096,
        "lng": -117.7566087
      },
      {
        "lat": 33.7305919,
        "lng": -117.7565349
      },
      {
        "lat": 33.7305747,
        "lng": -117.7564615
      },
      {
        "lat": 33.730558,
        "lng": -117.7563884
      },
      {
        "lat": 33.7305419,
        "lng": -117.7563159
      },
      {
        "lat": 33.7305263,
        "lng": -117.7562439
      },
      {
        "lat": 33.7305113,
        "lng": -117.7561725
      },
      {
        "lat": 33.730497,
        "lng": -117.7561019
      },
      {
        "lat": 33.7304832,
        "lng": -117.756032
      },
      {
        "lat": 33.73047,
        "lng": -117.755963
      },
      {
        "lat": 33.7304575,
        "lng": -117.755895
      },
      {
        "lat": 33.7304456,
        "lng": -117.7558279
      },
      {
        "lat": 33.7304343,
        "lng": -117.755762
      },
      {
        "lat": 33.7304237,
        "lng": -117.7556972
      },
      {
        "lat": 33.7304138,
        "lng": -117.7556337
      },
      {
        "lat": 33.7304046,
        "lng": -117.7555715
      },
      {
        "lat": 33.7303961,
        "lng": -117.7555107
      },
      {
        "lat": 33.7303883,
        "lng": -117.7554514
      },
      {
        "lat": 33.7303813,
        "lng": -117.7553936
      },
      {
        "lat": 33.730375,
        "lng": -117.7553374
      },
      {
        "lat": 33.7303694,
        "lng": -117.755283
      },
      {
        "lat": 33.7303694,
        "lng": -117.755283
      },
      {
        "lat": 33.7303551,
        "lng": -117.7551484
      },
      {
        "lat": 33.7303471,
        "lng": -117.7550818
      },
      {
        "lat": 33.7303386,
        "lng": -117.7550157
      },
      {
        "lat": 33.7303295,
        "lng": -117.7549502
      },
      {
        "lat": 33.73032,
        "lng": -117.7548852
      },
      {
        "lat": 33.73031,
        "lng": -117.7548208
      },
      {
        "lat": 33.7302995,
        "lng": -117.754757
      },
      {
        "lat": 33.7302887,
        "lng": -117.7546938
      },
      {
        "lat": 33.7302774,
        "lng": -117.7546313
      },
      {
        "lat": 33.7302658,
        "lng": -117.7545694
      },
      {
        "lat": 33.7302539,
        "lng": -117.7545083
      },
      {
        "lat": 33.7302416,
        "lng": -117.7544478
      },
      {
        "lat": 33.7302291,
        "lng": -117.7543881
      },
      {
        "lat": 33.7302163,
        "lng": -117.7543291
      },
      {
        "lat": 33.7302032,
        "lng": -117.754271
      },
      {
        "lat": 33.73019,
        "lng": -117.7542136
      },
      {
        "lat": 33.7301765,
        "lng": -117.7541571
      },
      {
        "lat": 33.7301629,
        "lng": -117.7541014
      },
      {
        "lat": 33.7301492,
        "lng": -117.7540466
      },
      {
        "lat": 33.7301353,
        "lng": -117.7539927
      },
      {
        "lat": 33.7301214,
        "lng": -117.7539398
      },
      {
        "lat": 33.7301074,
        "lng": -117.7538877
      },
      {
        "lat": 33.7300933,
        "lng": -117.7538367
      },
      {
        "lat": 33.7300793,
        "lng": -117.7537866
      },
      {
        "lat": 33.7300652,
        "lng": -117.7537375
      },
      {
        "lat": 33.7300512,
        "lng": -117.7536895
      },
      {
        "lat": 33.7300373,
        "lng": -117.7536426
      },
      {
        "lat": 33.7300235,
        "lng": -117.7535967
      },
      {
        "lat": 33.7300098,
        "lng": -117.7535519
      },
      {
        "lat": 33.7299962,
        "lng": -117.7535083
      },
      {
        "lat": 33.7299828,
        "lng": -117.7534658
      },
      {
        "lat": 33.7299695,
        "lng": -117.7534244
      },
      {
        "lat": 33.7299565,
        "lng": -117.7533843
      },
      {
        "lat": 33.7299438,
        "lng": -117.7533454
      },
      {
        "lat": 33.7299312,
        "lng": -117.7533077
      },
      {
        "lat": 33.729919,
        "lng": -117.7532714
      },
      {
        "lat": 33.7299071,
        "lng": -117.7532362
      },
      {
        "lat": 33.7298956,
        "lng": -117.7532024
      },
      {
        "lat": 33.7298844,
        "lng": -117.75317
      },
      {
        "lat": 33.7298736,
        "lng": -117.7531389
      },
      {
        "lat": 33.7298632,
        "lng": -117.7531091
      },
      {
        "lat": 33.7298533,
        "lng": -117.7530808
      },
      {
        "lat": 33.7298438,
        "lng": -117.7530539
      },
      {
        "lat": 33.7298349,
        "lng": -117.7530285
      },
      {
        "lat": 33.7298264,
        "lng": -117.7530045
      },
      {
        "lat": 33.7298185,
        "lng": -117.752982
      },
      {
        "lat": 33.7298112,
        "lng": -117.752961
      },
      {
        "lat": 33.7298044,
        "lng": -117.7529416
      },
      {
        "lat": 33.7297983,
        "lng": -117.7529237
      },
      {
        "lat": 33.7297983,
        "lng": -117.7529237
      },
      {
        "lat": 33.7297859,
        "lng": -117.7528878
      },
      {
        "lat": 33.7297792,
        "lng": -117.7528684
      },
      {
        "lat": 33.7297721,
        "lng": -117.7528482
      },
      {
        "lat": 33.7297646,
        "lng": -117.7528271
      },
      {
        "lat": 33.7297568,
        "lng": -117.7528052
      },
      {
        "lat": 33.7297485,
        "lng": -117.7527824
      },